{
"type": "FeatureCollection",
"features": [
{ "type": "Feature", "properties": { "Service Name": "Anne West Kindergarten", "Latitude": -35.118228, "Longitude": 173.258565, "Territorial Authority": "Far North District", "Service Type": "Free Kindergarten", "20 Hours ECE": "Yes", "Max. Licenced Positions": 30.0, "Under 2's": 0.0, "tooltip": "Anne West Kindergarten" }, "geometry": { "type": "Point", "coordinates": [ 173.258565, -35.118228 ] } },
{ "type": "Feature", "properties": { "Service Name": "Doubtless Bay Kindergarten", "Latitude": -34.994478, "Longitude": 173.46473, "Territorial Authority": "Far North District", "Service Type": "Free Kindergarten", "20 Hours ECE": "Yes", "Max. Licenced Positions": 30.0, "Under 2's": 0.0, "tooltip": "Doubtless Bay Kindergarten" }, "geometry": { "type": "Point", "coordinates": [ 173.46473, -34.994478 ] } },
{ "type": "Feature", "properties": { "Service Name": "Mission Place Kindergarten", "Latitude": -35.11608, "Longitude": 173.270685, "Territorial Authority": "Far North District", "Service Type": "Free Kindergarten", "20 Hours ECE": "Yes", "Max. Licenced Positions": 30.0, "Under 2's": 0.0, "tooltip": "Mission Place Kindergarten" }, "geometry": { "type": "Point", "coordinates": [ 173.270685, -35.11608 ] } },
{ "type": "Feature", "properties": { "Service Name": "Hillcrest Kindergarten", "Latitude": -35.405553, "Longitude": 173.796409, "Territorial Authority": "Far North District", "Service Type": "Free Kindergarten", "20 Hours ECE": "Yes", "Max. Licenced Positions": 30.0, "Under 2's": 0.0, "tooltip": "Hillcrest Kindergarten" }, "geometry": { "type": "Point", "coordinates": [ 173.796409, -35.405553 ] } },
{ "type": "Feature", "properties": { "Service Name": "Waitangi Kindergarten", "Latitude": -35.278121, "Longitude": 174.081808, "Territorial Authority": "Far North District", "Service Type": "Free Kindergarten", "20 Hours ECE": "Yes", "Max. Licenced Positions": 30.0, "Under 2's": 0.0, "tooltip": "Waitangi Kindergarten" }, "geometry": { "type": "Point", "coordinates": [ 174.081808, -35.278121 ] } },
{ "type": "Feature", "properties": { "Service Name": "Dargaville Free Kindergarten", "Latitude": -35.939804, "Longitude": 173.868327, "Territorial Authority": "Kaipara District", "Service Type": "Free Kindergarten", "20 Hours ECE": "Yes", "Max. Licenced Positions": 40.0, "Under 2's": 0.0, "tooltip": "Dargaville Free Kindergarten" }, "geometry": { "type": "Point", "coordinates": [ 173.868327, -35.939804 ] } },
{ "type": "Feature", "properties": { "Service Name": "Ruawai Kindergarten", "Latitude": -36.122212, "Longitude": 174.011402, "Territorial Authority": "Kaipara District", "Service Type": "Free Kindergarten", "20 Hours ECE": "Yes", "Max. Licenced Positions": 40.0, "Under 2's": 0.0, "tooltip": "Ruawai Kindergarten" }, "geometry": { "type": "Point", "coordinates": [ 174.011402, -36.122212 ] } },
{ "type": "Feature", "properties": { "Service Name": "Selwyn Park Kindergarten", "Latitude": -35.93317, "Longitude": 173.875022, "Territorial Authority": "Kaipara District", "Service Type": "Free Kindergarten", "20 Hours ECE": "Yes", "Max. Licenced Positions": 30.0, "Under 2's": 0.0, "tooltip": "Selwyn Park Kindergarten" }, "geometry": { "type": "Point", "coordinates": [ 173.875022, -35.93317 ] } },
{ "type": "Feature", "properties": { "Service Name": "Forest View Kindergarten", "Latitude": -35.684404, "Longitude": 174.330054, "Territorial Authority": "Whangarei District", "Service Type": "Free Kindergarten", "20 Hours ECE": "Yes", "Max. Licenced Positions": 40.0, "Under 2's": 0.0, "tooltip": "Forest View Kindergarten" }, "geometry": { "type": "Point", "coordinates": [ 174.330054, -35.684404 ] } },
{ "type": "Feature", "properties": { "Service Name": "First Ave Hora Hora Kindergarten", "Latitude": -35.729124, "Longitude": 174.313153, "Territorial Authority": "Whangarei District", "Service Type": "Free Kindergarten", "20 Hours ECE": "Yes", "Max. Licenced Positions": 40.0, "Under 2's": 0.0, "tooltip": "First Ave Hora Hora Kindergarten" }, "geometry": { "type": "Point", "coordinates": [ 174.313153, -35.729124 ] } },
{ "type": "Feature", "properties": { "Service Name": "Te Kamo Kindergarten", "Latitude": -35.681472, "Longitude": 174.304352, "Territorial Authority": "Whangarei District", "Service Type": "Free Kindergarten", "20 Hours ECE": "Yes", "Max. Licenced Positions": 30.0, "Under 2's": 0.0, "tooltip": "Te Kamo Kindergarten" }, "geometry": { "type": "Point", "coordinates": [ 174.304352, -35.681472 ] } },
{ "type": "Feature", "properties": { "Service Name": "Mairtown Free Kindergarten", "Latitude": -35.706372, "Longitude": 174.322989, "Territorial Authority": "Whangarei District", "Service Type": "Free Kindergarten", "20 Hours ECE": "Yes", "Max. Licenced Positions": 40.0, "Under 2's": 0.0, "tooltip": "Mairtown Free Kindergarten" }, "geometry": { "type": "Point", "coordinates": [ 174.322989, -35.706372 ] } },
{ "type": "Feature", "properties": { "Service Name": "Onerahi Free Kindergarten", "Latitude": -35.751745, "Longitude": 174.371484, "Territorial Authority": "Whangarei District", "Service Type": "Free Kindergarten", "20 Hours ECE": "Yes", "Max. Licenced Positions": 40.0, "Under 2's": 0.0, "tooltip": "Onerahi Free Kindergarten" }, "geometry": { "type": "Point", "coordinates": [ 174.371484, -35.751745 ] } },
{ "type": "Feature", "properties": { "Service Name": "Hikurangi Kindergarten", "Latitude": -35.602038, "Longitude": 174.286575, "Territorial Authority": "Whangarei District", "Service Type": "Free Kindergarten", "20 Hours ECE": "Yes", "Max. Licenced Positions": 30.0, "Under 2's": 0.0, "tooltip": "Hikurangi Kindergarten" }, "geometry": { "type": "Point", "coordinates": [ 174.286575, -35.602038 ] } },
{ "type": "Feature", "properties": { "Service Name": "Portland Kindergarten", "Latitude": -35.799127, "Longitude": 174.327581, "Territorial Authority": "Whangarei District", "Service Type": "Free Kindergarten", "20 Hours ECE": "Yes", "Max. Licenced Positions": 29.0, "Under 2's": 0.0, "tooltip": "Portland Kindergarten" }, "geometry": { "type": "Point", "coordinates": [ 174.327581, -35.799127 ] } },
{ "type": "Feature", "properties": { "Service Name": "Raumanga Kindergarten", "Latitude": -35.744242, "Longitude": 174.303826, "Territorial Authority": "Whangarei District", "Service Type": "Free Kindergarten", "20 Hours ECE": "Yes", "Max. Licenced Positions": 30.0, "Under 2's": 0.0, "tooltip": "Raumanga Kindergarten" }, "geometry": { "type": "Point", "coordinates": [ 174.303826, -35.744242 ] } },
{ "type": "Feature", "properties": { "Service Name": "Parihaka Kindergarten", "Latitude": -35.726097, "Longitude": 174.34388, "Territorial Authority": "Whangarei District", "Service Type": "Free Kindergarten", "20 Hours ECE": "Yes", "Max. Licenced Positions": 40.0, "Under 2's": 0.0, "tooltip": "Parihaka Kindergarten" }, "geometry": { "type": "Point", "coordinates": [ 174.34388, -35.726097 ] } },
{ "type": "Feature", "properties": { "Service Name": "Tikipunga Free Kindergarten", "Latitude": -35.686044, "Longitude": 174.325136, "Territorial Authority": "Whangarei District", "Service Type": "Free Kindergarten", "20 Hours ECE": "Yes", "Max. Licenced Positions": 40.0, "Under 2's": 0.0, "tooltip": "Tikipunga Free Kindergarten" }, "geometry": { "type": "Point", "coordinates": [ 174.325136, -35.686044 ] } },
{ "type": "Feature", "properties": { "Service Name": "Wellsford Kindergarten", "Latitude": -36.298799, "Longitude": 174.523063, "Territorial Authority": "Auckland", "Service Type": "Free Kindergarten", "20 Hours ECE": "Yes", "Max. Licenced Positions": 30.0, "Under 2's": 0.0, "tooltip": "Wellsford Kindergarten" }, "geometry": { "type": "Point", "coordinates": [ 174.523063, -36.298799 ] } },
{ "type": "Feature", "properties": { "Service Name": "Glamorgan Kindergarten", "Latitude": -36.700043, "Longitude": 174.735337, "Territorial Authority": "Auckland", "Service Type": "Free Kindergarten", "20 Hours ECE": "Yes", "Max. Licenced Positions": 45.0, "Under 2's": 0.0, "tooltip": "Glamorgan Kindergarten" }, "geometry": { "type": "Point", "coordinates": [ 174.735337, -36.700043 ] } },
{ "type": "Feature", "properties": { "Service Name": "Orewa Beach Kindergarten", "Latitude": -36.591805, "Longitude": 174.689008, "Territorial Authority": "Auckland", "Service Type": "Free Kindergarten", "20 Hours ECE": "Yes", "Max. Licenced Positions": 40.0, "Under 2's": 0.0, "tooltip": "Orewa Beach Kindergarten" }, "geometry": { "type": "Point", "coordinates": [ 174.689008, -36.591805 ] } },
{ "type": "Feature", "properties": { "Service Name": "Mahurangi Kindergarten", "Latitude": -36.397484, "Longitude": 174.653464, "Territorial Authority": "Auckland", "Service Type": "Free Kindergarten", "20 Hours ECE": "Yes", "Max. Licenced Positions": 40.0, "Under 2's": 0.0, "tooltip": "Mahurangi Kindergarten" }, "geometry": { "type": "Point", "coordinates": [ 174.653464, -36.397484 ] } },
{ "type": "Feature", "properties": { "Service Name": "Rangitoto Kindergarten", "Latitude": -36.736532, "Longitude": 174.748927, "Territorial Authority": "Auckland", "Service Type": "Free Kindergarten", "20 Hours ECE": "Yes", "Max. Licenced Positions": 45.0, "Under 2's": 0.0, "tooltip": "Rangitoto Kindergarten" }, "geometry": { "type": "Point", "coordinates": [ 174.748927, -36.736532 ] } },
{ "type": "Feature", "properties": { "Service Name": "Taiaotea Kindergarten", "Latitude": -36.715509, "Longitude": 174.741811, "Territorial Authority": "Auckland", "Service Type": "Free Kindergarten", "20 Hours ECE": "Yes", "Max. Licenced Positions": 40.0, "Under 2's": 0.0, "tooltip": "Taiaotea Kindergarten" }, "geometry": { "type": "Point", "coordinates": [ 174.741811, -36.715509 ] } },
{ "type": "Feature", "properties": { "Service Name": "Torbay Kindergarten", "Latitude": -36.69917, "Longitude": 174.750614, "Territorial Authority": "Auckland", "Service Type": "Free Kindergarten", "20 Hours ECE": "Yes", "Max. Licenced Positions": 45.0, "Under 2's": 0.0, "tooltip": "Torbay Kindergarten" }, "geometry": { "type": "Point", "coordinates": [ 174.750614, -36.69917 ] } },
{ "type": "Feature", "properties": { "Service Name": "Stanmore Bay Kindergarten", "Latitude": -36.624388, "Longitude": 174.728402, "Territorial Authority": "Auckland", "Service Type": "Free Kindergarten", "20 Hours ECE": "Yes", "Max. Licenced Positions": 40.0, "Under 2's": 0.0, "tooltip": "Stanmore Bay Kindergarten" }, "geometry": { "type": "Point", "coordinates": [ 174.728402, -36.624388 ] } },
{ "type": "Feature", "properties": { "Service Name": "Anchorage Park Kindergarten", "Latitude": -36.919121, "Longitude": 174.866969, "Territorial Authority": "Auckland", "Service Type": "Free Kindergarten", "20 Hours ECE": "Yes", "Max. Licenced Positions": 40.0, "Under 2's": 0.0, "tooltip": "Anchorage Park Kindergarten" }, "geometry": { "type": "Point", "coordinates": [ 174.866969, -36.919121 ] } },
{ "type": "Feature", "properties": { "Service Name": "Avondale Kindergarten", "Latitude": -36.890197, "Longitude": 174.687415, "Territorial Authority": "Auckland", "Service Type": "Free Kindergarten", "20 Hours ECE": "Yes", "Max. Licenced Positions": 40.0, "Under 2's": 0.0, "tooltip": "Avondale Kindergarten" }, "geometry": { "type": "Point", "coordinates": [ 174.687415, -36.890197 ] } },
{ "type": "Feature", "properties": { "Service Name": "Bairds Kindergarten", "Latitude": -36.960097, "Longitude": 174.866388, "Territorial Authority": "Auckland", "Service Type": "Free Kindergarten", "20 Hours ECE": "Yes", "Max. Licenced Positions": 30.0, "Under 2's": 0.0, "tooltip": "Bairds Kindergarten" }, "geometry": { "type": "Point", "coordinates": [ 174.866388, -36.960097 ] } },
{ "type": "Feature", "properties": { "Service Name": "Bayview Kindergarten", "Latitude": -36.772088, "Longitude": 174.705384, "Territorial Authority": "Auckland", "Service Type": "Free Kindergarten", "20 Hours ECE": "Yes", "Max. Licenced Positions": 40.0, "Under 2's": 0.0, "tooltip": "Bayview Kindergarten" }, "geometry": { "type": "Point", "coordinates": [ 174.705384, -36.772088 ] } },
{ "type": "Feature", "properties": { "Service Name": "Belmont Bayswater Kindergarten", "Latitude": -36.812387, "Longitude": 174.783899, "Territorial Authority": "Auckland", "Service Type": "Free Kindergarten", "20 Hours ECE": "Yes", "Max. Licenced Positions": 40.0, "Under 2's": 0.0, "tooltip": "Belmont Bayswater Kindergarten" }, "geometry": { "type": "Point", "coordinates": [ 174.783899, -36.812387 ] } },
{ "type": "Feature", "properties": { "Service Name": "Beach Haven Kindergarten", "Latitude": -36.790652, "Longitude": 174.692572, "Territorial Authority": "Auckland", "Service Type": "Free Kindergarten", "20 Hours ECE": "Yes", "Max. Licenced Positions": 40.0, "Under 2's": 0.0, "tooltip": "Beach Haven Kindergarten" }, "geometry": { "type": "Point", "coordinates": [ 174.692572, -36.790652 ] } },
{ "type": "Feature", "properties": { "Service Name": "Birkenhead Kindergarten", "Latitude": -36.8114, "Longitude": 174.72144, "Territorial Authority": "Auckland", "Service Type": "Free Kindergarten", "20 Hours ECE": "Yes", "Max. Licenced Positions": 40.0, "Under 2's": 0.0, "tooltip": "Birkenhead Kindergarten" }, "geometry": { "type": "Point", "coordinates": [ 174.72144, -36.8114 ] } },
{ "type": "Feature", "properties": { "Service Name": "Blockhouse Bay Kindergarten", "Latitude": -36.921856, "Longitude": 174.702335, "Territorial Authority": "Auckland", "Service Type": "Free Kindergarten", "20 Hours ECE": "Yes", "Max. Licenced Positions": 40.0, "Under 2's": 0.0, "tooltip": "Blockhouse Bay Kindergarten" }, "geometry": { "type": "Point", "coordinates": [ 174.702335, -36.921856 ] } },
{ "type": "Feature", "properties": { "Service Name": "Botany Downs Kindergarten", "Latitude": -36.910387, "Longitude": 174.921919, "Territorial Authority": "Auckland", "Service Type": "Free Kindergarten", "20 Hours ECE": "Yes", "Max. Licenced Positions": 40.0, "Under 2's": 0.0, "tooltip": "Botany Downs Kindergarten" }, "geometry": { "type": "Point", "coordinates": [ 174.921919, -36.910387 ] } },
{ "type": "Feature", "properties": { "Service Name": "Sunnynook Kindergarten", "Latitude": -36.754854, "Longitude": 174.743601, "Territorial Authority": "Auckland", "Service Type": "Free Kindergarten", "20 Hours ECE": "Yes", "Max. Licenced Positions": 40.0, "Under 2's": 0.0, "tooltip": "Sunnynook Kindergarten" }, "geometry": { "type": "Point", "coordinates": [ 174.743601, -36.754854 ] } },
{ "type": "Feature", "properties": { "Service Name": "Bucklands Beach Kindergarten", "Latitude": -36.878244, "Longitude": 174.911849, "Territorial Authority": "Auckland", "Service Type": "Free Kindergarten", "20 Hours ECE": "Yes", "Max. Licenced Positions": 40.0, "Under 2's": 0.0, "tooltip": "Bucklands Beach Kindergarten" }, "geometry": { "type": "Point", "coordinates": [ 174.911849, -36.878244 ] } },
{ "type": "Feature", "properties": { "Service Name": "Cascades Kindergarten", "Latitude": -36.908673, "Longitude": 174.899602, "Territorial Authority": "Auckland", "Service Type": "Free Kindergarten", "20 Hours ECE": "Yes", "Max. Licenced Positions": 40.0, "Under 2's": 0.0, "tooltip": "Cascades Kindergarten" }, "geometry": { "type": "Point", "coordinates": [ 174.899602, -36.908673 ] } },
{ "type": "Feature", "properties": { "Service Name": "Ellerslie Kindergarten", "Latitude": -36.890564, "Longitude": 174.82237, "Territorial Authority": "Auckland", "Service Type": "Free Kindergarten", "20 Hours ECE": "Yes", "Max. Licenced Positions": 40.0, "Under 2's": 0.0, "tooltip": "Ellerslie Kindergarten" }, "geometry": { "type": "Point", "coordinates": [ 174.82237, -36.890564 ] } },
{ "type": "Feature", "properties": { "Service Name": "Colwill Kindergarten", "Latitude": -36.834802, "Longitude": 174.632911, "Territorial Authority": "Auckland", "Service Type": "Free Kindergarten", "20 Hours ECE": "Yes", "Max. Licenced Positions": 30.0, "Under 2's": 0.0, "tooltip": "Colwill Kindergarten" }, "geometry": { "type": "Point", "coordinates": [ 174.632911, -36.834802 ] } },
{ "type": "Feature", "properties": { "Service Name": "Remuera Kindergarten", "Latitude": -36.88245, "Longitude": 174.805266, "Territorial Authority": "Auckland", "Service Type": "Free Kindergarten", "20 Hours ECE": "Yes", "Max. Licenced Positions": 40.0, "Under 2's": 0.0, "tooltip": "Remuera Kindergarten" }, "geometry": { "type": "Point", "coordinates": [ 174.805266, -36.88245 ] } },
{ "type": "Feature", "properties": { "Service Name": "Onehunga Kindergarten", "Latitude": -36.917184, "Longitude": 174.787695, "Territorial Authority": "Auckland", "Service Type": "Free Kindergarten", "20 Hours ECE": "Yes", "Max. Licenced Positions": 40.0, "Under 2's": 0.0, "tooltip": "Onehunga Kindergarten" }, "geometry": { "type": "Point", "coordinates": [ 174.787695, -36.917184 ] } },
{ "type": "Feature", "properties": { "Service Name": "Devonport Kindergarten", "Latitude": -36.824889, "Longitude": 174.803419, "Territorial Authority": "Auckland", "Service Type": "Free Kindergarten", "20 Hours ECE": "Yes", "Max. Licenced Positions": 40.0, "Under 2's": 0.0, "tooltip": "Devonport Kindergarten" }, "geometry": { "type": "Point", "coordinates": [ 174.803419, -36.824889 ] } },
{ "type": "Feature", "properties": { "Service Name": "Don Buck Kindergarten", "Latitude": -36.850833, "Longitude": 174.609648, "Territorial Authority": "Auckland", "Service Type": "Free Kindergarten", "20 Hours ECE": "Yes", "Max. Licenced Positions": 40.0, "Under 2's": 0.0, "tooltip": "Don Buck Kindergarten" }, "geometry": { "type": "Point", "coordinates": [ 174.609648, -36.850833 ] } },
{ "type": "Feature", "properties": { "Service Name": "Favona Kindergarten", "Latitude": -36.953889, "Longitude": 174.807476, "Territorial Authority": "Auckland", "Service Type": "Free Kindergarten", "20 Hours ECE": "Yes", "Max. Licenced Positions": 40.0, "Under 2's": 0.0, "tooltip": "Favona Kindergarten" }, "geometry": { "type": "Point", "coordinates": [ 174.807476, -36.953889 ] } },
{ "type": "Feature", "properties": { "Service Name": "Ferndale Kindergarten", "Latitude": -36.882298, "Longitude": 174.719432, "Territorial Authority": "Auckland", "Service Type": "Free Kindergarten", "20 Hours ECE": "Yes", "Max. Licenced Positions": 40.0, "Under 2's": 0.0, "tooltip": "Ferndale Kindergarten" }, "geometry": { "type": "Point", "coordinates": [ 174.719432, -36.882298 ] } },
{ "type": "Feature", "properties": { "Service Name": "Flatbush Kindergarten", "Latitude": -36.974276, "Longitude": 174.88429, "Territorial Authority": "Auckland", "Service Type": "Free Kindergarten", "20 Hours ECE": "Yes", "Max. Licenced Positions": 40.0, "Under 2's": 0.0, "tooltip": "Flatbush Kindergarten" }, "geometry": { "type": "Point", "coordinates": [ 174.88429, -36.974276 ] } },
{ "type": "Feature", "properties": { "Service Name": "Glen Eden Kindergarten", "Latitude": -36.909947, "Longitude": 174.653391, "Territorial Authority": "Auckland", "Service Type": "Free Kindergarten", "20 Hours ECE": "Yes", "Max. Licenced Positions": 45.0, "Under 2's": 0.0, "tooltip": "Glen Eden Kindergarten" }, "geometry": { "type": "Point", "coordinates": [ 174.653391, -36.909947 ] } },
{ "type": "Feature", "properties": { "Service Name": "Glen Innes Kindergarten", "Latitude": -36.87543, "Longitude": 174.872942, "Territorial Authority": "Auckland", "Service Type": "Free Kindergarten", "20 Hours ECE": "Yes", "Max. Licenced Positions": 40.0, "Under 2's": 0.0, "tooltip": "Glen Innes Kindergarten" }, "geometry": { "type": "Point", "coordinates": [ 174.872942, -36.87543 ] } },
{ "type": "Feature", "properties": { "Service Name": "Glenfield Kindergarten", "Latitude": -36.778446, "Longitude": 174.722213, "Territorial Authority": "Auckland", "Service Type": "Free Kindergarten", "20 Hours ECE": "Yes", "Max. Licenced Positions": 40.0, "Under 2's": 0.0, "tooltip": "Glenfield Kindergarten" }, "geometry": { "type": "Point", "coordinates": [ 174.722213, -36.778446 ] } },
{ "type": "Feature", "properties": { "Service Name": "Green Bay Kindergarten", "Latitude": -36.930257, "Longitude": 174.675305, "Territorial Authority": "Auckland", "Service Type": "Free Kindergarten", "20 Hours ECE": "Yes", "Max. Licenced Positions": 40.0, "Under 2's": 0.0, "tooltip": "Green Bay Kindergarten" }, "geometry": { "type": "Point", "coordinates": [ 174.675305, -36.930257 ] } },
{ "type": "Feature", "properties": { "Service Name": "Henderson Kindergarten", "Latitude": -36.879791, "Longitude": 174.629011, "Territorial Authority": "Auckland", "Service Type": "Free Kindergarten", "20 Hours ECE": "Yes", "Max. Licenced Positions": 40.0, "Under 2's": 0.0, "tooltip": "Henderson Kindergarten" }, "geometry": { "type": "Point", "coordinates": [ 174.629011, -36.879791 ] } },
{ "type": "Feature", "properties": { "Service Name": "Highland Park Kindergarten", "Latitude": -36.899209, "Longitude": 174.915483, "Territorial Authority": "Auckland", "Service Type": "Free Kindergarten", "20 Hours ECE": "Yes", "Max. Licenced Positions": 40.0, "Under 2's": 0.0, "tooltip": "Highland Park Kindergarten" }, "geometry": { "type": "Point", "coordinates": [ 174.915483, -36.899209 ] } },
{ "type": "Feature", "properties": { "Service Name": "Hillsborough Kindergarten", "Latitude": -36.923835, "Longitude": 174.744207, "Territorial Authority": "Auckland", "Service Type": "Free Kindergarten", "20 Hours ECE": "Yes", "Max. Licenced Positions": 40.0, "Under 2's": 0.0, "tooltip": "Hillsborough Kindergarten" }, "geometry": { "type": "Point", "coordinates": [ 174.744207, -36.923835 ] } },
{ "type": "Feature", "properties": { "Service Name": "Hobsonville Kindergarten", "Latitude": -36.813449, "Longitude": 174.62227, "Territorial Authority": "Auckland", "Service Type": "Free Kindergarten", "20 Hours ECE": "Yes", "Max. Licenced Positions": 40.0, "Under 2's": 0.0, "tooltip": "Hobsonville Kindergarten" }, "geometry": { "type": "Point", "coordinates": [ 174.62227, -36.813449 ] } },
{ "type": "Feature", "properties": { "Service Name": "Howick Kindergarten", "Latitude": -36.895696, "Longitude": 174.927596, "Territorial Authority": "Auckland", "Service Type": "Free Kindergarten", "20 Hours ECE": "Yes", "Max. Licenced Positions": 40.0, "Under 2's": 0.0, "tooltip": "Howick Kindergarten" }, "geometry": { "type": "Point", "coordinates": [ 174.927596, -36.895696 ] } },
{ "type": "Feature", "properties": { "Service Name": "Mangere West Kindergarten", "Latitude": -36.966547, "Longitude": 174.792749, "Territorial Authority": "Auckland", "Service Type": "Free Kindergarten", "20 Hours ECE": "Yes", "Max. Licenced Positions": 45.0, "Under 2's": 0.0, "tooltip": "Mangere West Kindergarten" }, "geometry": { "type": "Point", "coordinates": [ 174.792749, -36.966547 ] } },
{ "type": "Feature", "properties": { "Service Name": "Kauri Park Kindergarten", "Latitude": -36.804721, "Longitude": 174.698242, "Territorial Authority": "Auckland", "Service Type": "Free Kindergarten", "20 Hours ECE": "Yes", "Max. Licenced Positions": 40.0, "Under 2's": 0.0, "tooltip": "Kauri Park Kindergarten" }, "geometry": { "type": "Point", "coordinates": [ 174.698242, -36.804721 ] } },
{ "type": "Feature", "properties": { "Service Name": "Kingsdene Kindergarten", "Latitude": -36.972231, "Longitude": 174.80249, "Territorial Authority": "Auckland", "Service Type": "Free Kindergarten", "20 Hours ECE": "Yes", "Max. Licenced Positions": 30.0, "Under 2's": 0.0, "tooltip": "Kingsdene Kindergarten" }, "geometry": { "type": "Point", "coordinates": [ 174.80249, -36.972231 ] } },
{ "type": "Feature", "properties": { "Service Name": "Papatoetoe North Kindergarten", "Latitude": -36.969768, "Longitude": 174.830789, "Territorial Authority": "Auckland", "Service Type": "Free Kindergarten", "20 Hours ECE": "Yes", "Max. Licenced Positions": 40.0, "Under 2's": 0.0, "tooltip": "Papatoetoe North Kindergarten" }, "geometry": { "type": "Point", "coordinates": [ 174.830789, -36.969768 ] } },
{ "type": "Feature", "properties": { "Service Name": "Epsom South Kindergarten", "Latitude": -36.890121, "Longitude": 174.764092, "Territorial Authority": "Auckland", "Service Type": "Free Kindergarten", "20 Hours ECE": "Yes", "Max. Licenced Positions": 43.0, "Under 2's": 0.0, "tooltip": "Epsom South Kindergarten" }, "geometry": { "type": "Point", "coordinates": [ 174.764092, -36.890121 ] } },
{ "type": "Feature", "properties": { "Service Name": "Freemans Bay Kindergarten", "Latitude": -36.854866, "Longitude": 174.752223, "Territorial Authority": "Auckland", "Service Type": "Free Kindergarten", "20 Hours ECE": "Yes", "Max. Licenced Positions": 40.0, "Under 2's": 0.0, "tooltip": "Freemans Bay Kindergarten" }, "geometry": { "type": "Point", "coordinates": [ 174.752223, -36.854866 ] } },
{ "type": "Feature", "properties": { "Service Name": "Lynfield Kindergarten", "Latitude": -36.932737, "Longitude": 174.720259, "Territorial Authority": "Auckland", "Service Type": "Free Kindergarten", "20 Hours ECE": "Yes", "Max. Licenced Positions": 40.0, "Under 2's": 0.0, "tooltip": "Lynfield Kindergarten" }, "geometry": { "type": "Point", "coordinates": [ 174.720259, -36.932737 ] } },
{ "type": "Feature", "properties": { "Service Name": "McNaughton Kindergarten", "Latitude": -36.963002, "Longitude": 174.810822, "Territorial Authority": "Auckland", "Service Type": "Free Kindergarten", "20 Hours ECE": "Yes", "Max. Licenced Positions": 30.0, "Under 2's": 0.0, "tooltip": "McNaughton Kindergarten" }, "geometry": { "type": "Point", "coordinates": [ 174.810822, -36.963002 ] } },
{ "type": "Feature", "properties": { "Service Name": "Mangere Bridge Kindergarten", "Latitude": -36.946966, "Longitude": 174.77323, "Territorial Authority": "Auckland", "Service Type": "Free Kindergarten", "20 Hours ECE": "Yes", "Max. Licenced Positions": 40.0, "Under 2's": 0.0, "tooltip": "Mangere Bridge Kindergarten" }, "geometry": { "type": "Point", "coordinates": [ 174.77323, -36.946966 ] } },
{ "type": "Feature", "properties": { "Service Name": "Marlborough Kindergarten", "Latitude": -36.788961, "Longitude": 174.727597, "Territorial Authority": "Auckland", "Service Type": "Free Kindergarten", "20 Hours ECE": "Yes", "Max. Licenced Positions": 40.0, "Under 2's": 0.0, "tooltip": "Marlborough Kindergarten" }, "geometry": { "type": "Point", "coordinates": [ 174.727597, -36.788961 ] } },
{ "type": "Feature", "properties": { "Service Name": "Massey Kindergarten", "Latitude": -36.83943, "Longitude": 174.600169, "Territorial Authority": "Auckland", "Service Type": "Free Kindergarten", "20 Hours ECE": "Yes", "Max. Licenced Positions": 40.0, "Under 2's": 0.0, "tooltip": "Massey Kindergarten" }, "geometry": { "type": "Point", "coordinates": [ 174.600169, -36.83943 ] } },
{ "type": "Feature", "properties": { "Service Name": "Mayfield Kindergarten", "Latitude": -36.951381, "Longitude": 174.887445, "Territorial Authority": "Auckland", "Service Type": "Free Kindergarten", "20 Hours ECE": "Yes", "Max. Licenced Positions": 40.0, "Under 2's": 0.0, "tooltip": "Mayfield Kindergarten" }, "geometry": { "type": "Point", "coordinates": [ 174.887445, -36.951381 ] } },
{ "type": "Feature", "properties": { "Service Name": "Meadowbank Kindergarten", "Latitude": -36.869817, "Longitude": 174.823292, "Territorial Authority": "Auckland", "Service Type": "Free Kindergarten", "20 Hours ECE": "Yes", "Max. Licenced Positions": 40.0, "Under 2's": 0.0, "tooltip": "Meadowbank Kindergarten" }, "geometry": { "type": "Point", "coordinates": [ 174.823292, -36.869817 ] } },
{ "type": "Feature", "properties": { "Service Name": "Milford Kindergarten", "Latitude": -36.77528, "Longitude": 174.767485, "Territorial Authority": "Auckland", "Service Type": "Free Kindergarten", "20 Hours ECE": "Yes", "Max. Licenced Positions": 40.0, "Under 2's": 0.0, "tooltip": "Milford Kindergarten" }, "geometry": { "type": "Point", "coordinates": [ 174.767485, -36.77528 ] } },
{ "type": "Feature", "properties": { "Service Name": "Mission Bay Kindergarten", "Latitude": -36.855582, "Longitude": 174.828838, "Territorial Authority": "Auckland", "Service Type": "Free Kindergarten", "20 Hours ECE": "Yes", "Max. Licenced Positions": 40.0, "Under 2's": 0.0, "tooltip": "Mission Bay Kindergarten" }, "geometry": { "type": "Point", "coordinates": [ 174.828838, -36.855582 ] } },
{ "type": "Feature", "properties": { "Service Name": "Morningside Kindergarten", "Latitude": -36.876569, "Longitude": 174.732544, "Territorial Authority": "Auckland", "Service Type": "Free Kindergarten", "20 Hours ECE": "Yes", "Max. Licenced Positions": 40.0, "Under 2's": 0.0, "tooltip": "Morningside Kindergarten" }, "geometry": { "type": "Point", "coordinates": [ 174.732544, -36.876569 ] } },
{ "type": "Feature", "properties": { "Service Name": "Mt Eden Kindergarten", "Latitude": -36.882062, "Longitude": 174.750512, "Territorial Authority": "Auckland", "Service Type": "Free Kindergarten", "20 Hours ECE": "Yes", "Max. Licenced Positions": 40.0, "Under 2's": 0.0, "tooltip": "Mt Eden Kindergarten" }, "geometry": { "type": "Point", "coordinates": [ 174.750512, -36.882062 ] } },
{ "type": "Feature", "properties": { "Service Name": "Mt Roskill Kindergarten", "Latitude": -36.905514, "Longitude": 174.746597, "Territorial Authority": "Auckland", "Service Type": "Free Kindergarten", "20 Hours ECE": "Yes", "Max. Licenced Positions": 40.0, "Under 2's": 0.0, "tooltip": "Mt Roskill Kindergarten" }, "geometry": { "type": "Point", "coordinates": [ 174.746597, -36.905514 ] } },
{ "type": "Feature", "properties": { "Service Name": "Sylvia Park Kindergarten", "Latitude": -36.912642, "Longitude": 174.83685, "Territorial Authority": "Auckland", "Service Type": "Free Kindergarten", "20 Hours ECE": "Yes", "Max. Licenced Positions": 40.0, "Under 2's": 0.0, "tooltip": "Sylvia Park Kindergarten" }, "geometry": { "type": "Point", "coordinates": [ 174.83685, -36.912642 ] } },
{ "type": "Feature", "properties": { "Service Name": "Murdoch Park Kindergarten", "Latitude": -36.987463, "Longitude": 174.849303, "Territorial Authority": "Auckland", "Service Type": "Free Kindergarten", "20 Hours ECE": "Yes", "Max. Licenced Positions": 40.0, "Under 2's": 0.0, "tooltip": "Murdoch Park Kindergarten" }, "geometry": { "type": "Point", "coordinates": [ 174.849303, -36.987463 ] } },
{ "type": "Feature", "properties": { "Service Name": "Northcote Central Kindergarten", "Latitude": -36.801077, "Longitude": 174.747626, "Territorial Authority": "Auckland", "Service Type": "Free Kindergarten", "20 Hours ECE": "Yes", "Max. Licenced Positions": 40.0, "Under 2's": 0.0, "tooltip": "Northcote Central Kindergarten" }, "geometry": { "type": "Point", "coordinates": [ 174.747626, -36.801077 ] } },
{ "type": "Feature", "properties": { "Service Name": "Northcote Kindergarten", "Latitude": -36.809617, "Longitude": 174.741806, "Territorial Authority": "Auckland", "Service Type": "Free Kindergarten", "20 Hours ECE": "Yes", "Max. Licenced Positions": 40.0, "Under 2's": 0.0, "tooltip": "Northcote Kindergarten" }, "geometry": { "type": "Point", "coordinates": [ 174.741806, -36.809617 ] } },
{ "type": "Feature", "properties": { "Service Name": "Omana Kindergarten", "Latitude": -36.967796, "Longitude": 174.850579, "Territorial Authority": "Auckland", "Service Type": "Free Kindergarten", "20 Hours ECE": "Yes", "Max. Licenced Positions": 40.0, "Under 2's": 0.0, "tooltip": "Omana Kindergarten" }, "geometry": { "type": "Point", "coordinates": [ 174.850579, -36.967796 ] } },
{ "type": "Feature", "properties": { "Service Name": "Orakei Kindergarten", "Latitude": -36.858105, "Longitude": 174.816472, "Territorial Authority": "Auckland", "Service Type": "Free Kindergarten", "20 Hours ECE": "Yes", "Max. Licenced Positions": 40.0, "Under 2's": 0.0, "tooltip": "Orakei Kindergarten" }, "geometry": { "type": "Point", "coordinates": [ 174.816472, -36.858105 ] } },
{ "type": "Feature", "properties": { "Service Name": "Oratia Kindergarten", "Latitude": -36.912495, "Longitude": 174.620267, "Territorial Authority": "Auckland", "Service Type": "Free Kindergarten", "20 Hours ECE": "Yes", "Max. Licenced Positions": 40.0, "Under 2's": 0.0, "tooltip": "Oratia Kindergarten" }, "geometry": { "type": "Point", "coordinates": [ 174.620267, -36.912495 ] } },
{ "type": "Feature", "properties": { "Service Name": "Otahuhu Kindergarten", "Latitude": -36.943614, "Longitude": 174.848088, "Territorial Authority": "Auckland", "Service Type": "Free Kindergarten", "20 Hours ECE": "Yes", "Max. Licenced Positions": 40.0, "Under 2's": 0.0, "tooltip": "Otahuhu Kindergarten" }, "geometry": { "type": "Point", "coordinates": [ 174.848088, -36.943614 ] } },
{ "type": "Feature", "properties": { "Service Name": "Owairaka Kindergarten", "Latitude": -36.894884, "Longitude": 174.714452, "Territorial Authority": "Auckland", "Service Type": "Free Kindergarten", "20 Hours ECE": "Yes", "Max. Licenced Positions": 40.0, "Under 2's": 0.0, "tooltip": "Owairaka Kindergarten" }, "geometry": { "type": "Point", "coordinates": [ 174.714452, -36.894884 ] } },
{ "type": "Feature", "properties": { "Service Name": "Pakuranga Kindergarten", "Latitude": -36.915177, "Longitude": 174.88331, "Territorial Authority": "Auckland", "Service Type": "Free Kindergarten", "20 Hours ECE": "Yes", "Max. Licenced Positions": 40.0, "Under 2's": 0.0, "tooltip": "Pakuranga Kindergarten" }, "geometry": { "type": "Point", "coordinates": [ 174.88331, -36.915177 ] } },
{ "type": "Feature", "properties": { "Service Name": "Papatoetoe Kindergarten", "Latitude": -36.97717, "Longitude": 174.86094, "Territorial Authority": "Auckland", "Service Type": "Free Kindergarten", "20 Hours ECE": "Yes", "Max. Licenced Positions": 40.0, "Under 2's": 0.0, "tooltip": "Papatoetoe Kindergarten" }, "geometry": { "type": "Point", "coordinates": [ 174.86094, -36.97717 ] } },
{ "type": "Feature", "properties": { "Service Name": "Parnell Kindergarten", "Latitude": -36.854603, "Longitude": 174.785848, "Territorial Authority": "Auckland", "Service Type": "Free Kindergarten", "20 Hours ECE": "Yes", "Max. Licenced Positions": 30.0, "Under 2's": 0.0, "tooltip": "Parnell Kindergarten" }, "geometry": { "type": "Point", "coordinates": [ 174.785848, -36.854603 ] } },
{ "type": "Feature", "properties": { "Service Name": "Ponsonby Kindergarten", "Latitude": -36.850222, "Longitude": 174.741843, "Territorial Authority": "Auckland", "Service Type": "Free Kindergarten", "20 Hours ECE": "Yes", "Max. Licenced Positions": 40.0, "Under 2's": 0.0, "tooltip": "Ponsonby Kindergarten" }, "geometry": { "type": "Point", "coordinates": [ 174.741843, -36.850222 ] } },
{ "type": "Feature", "properties": { "Service Name": "Pt England Kindergarten", "Latitude": -36.882971, "Longitude": 174.867346, "Territorial Authority": "Auckland", "Service Type": "Free Kindergarten", "20 Hours ECE": "Yes", "Max. Licenced Positions": 40.0, "Under 2's": 0.0, "tooltip": "Pt England Kindergarten" }, "geometry": { "type": "Point", "coordinates": [ 174.867346, -36.882971 ] } },
{ "type": "Feature", "properties": { "Service Name": "Ranui Kindergarten", "Latitude": -36.865769, "Longitude": 174.60336, "Territorial Authority": "Auckland", "Service Type": "Free Kindergarten", "20 Hours ECE": "Yes", "Max. Licenced Positions": 40.0, "Under 2's": 0.0, "tooltip": "Ranui Kindergarten" }, "geometry": { "type": "Point", "coordinates": [ 174.60336, -36.865769 ] } },
{ "type": "Feature", "properties": { "Service Name": "Lincoln North Kindergarten", "Latitude": -36.857811, "Longitude": 174.624225, "Territorial Authority": "Auckland", "Service Type": "Free Kindergarten", "20 Hours ECE": "Yes", "Max. Licenced Positions": 40.0, "Under 2's": 0.0, "tooltip": "Lincoln North Kindergarten" }, "geometry": { "type": "Point", "coordinates": [ 174.624225, -36.857811 ] } },
{ "type": "Feature", "properties": { "Service Name": "Glen Eden West Kindergarten", "Latitude": -36.915398, "Longitude": 174.640216, "Territorial Authority": "Auckland", "Service Type": "Free Kindergarten", "20 Hours ECE": "Yes", "Max. Licenced Positions": 40.0, "Under 2's": 0.0, "tooltip": "Glen Eden West Kindergarten" }, "geometry": { "type": "Point", "coordinates": [ 174.640216, -36.915398 ] } },
{ "type": "Feature", "properties": { "Service Name": "Roskill South Kindergarten", "Latitude": -36.925568, "Longitude": 174.734883, "Territorial Authority": "Auckland", "Service Type": "Free Kindergarten", "20 Hours ECE": "Yes", "Max. Licenced Positions": 40.0, "Under 2's": 0.0, "tooltip": "Roskill South Kindergarten" }, "geometry": { "type": "Point", "coordinates": [ 174.734883, -36.925568 ] } },
{ "type": "Feature", "properties": { "Service Name": "Mt Albert Kindergarten", "Latitude": -36.882062, "Longitude": 174.709616, "Territorial Authority": "Auckland", "Service Type": "Free Kindergarten", "20 Hours ECE": "Yes", "Max. Licenced Positions": 40.0, "Under 2's": 0.0, "tooltip": "Mt Albert Kindergarten" }, "geometry": { "type": "Point", "coordinates": [ 174.709616, -36.882062 ] } },
{ "type": "Feature", "properties": { "Service Name": "St Heliers Kindergarten", "Latitude": -36.859027, "Longitude": 174.861909, "Territorial Authority": "Auckland", "Service Type": "Free Kindergarten", "20 Hours ECE": "Yes", "Max. Licenced Positions": 40.0, "Under 2's": 0.0, "tooltip": "St Heliers Kindergarten" }, "geometry": { "type": "Point", "coordinates": [ 174.861909, -36.859027 ] } },
{ "type": "Feature", "properties": { "Service Name": "Grey Lynn Kindergarten", "Latitude": -36.86556, "Longitude": 174.74797, "Territorial Authority": "Auckland", "Service Type": "Free Kindergarten", "20 Hours ECE": "Yes", "Max. Licenced Positions": 30.0, "Under 2's": 0.0, "tooltip": "Grey Lynn Kindergarten" }, "geometry": { "type": "Point", "coordinates": [ 174.74797, -36.86556 ] } },
{ "type": "Feature", "properties": { "Service Name": "St Johns Kindergarten", "Latitude": -36.878248, "Longitude": 174.847488, "Territorial Authority": "Auckland", "Service Type": "Free Kindergarten", "20 Hours ECE": "Yes", "Max. Licenced Positions": 40.0, "Under 2's": 0.0, "tooltip": "St Johns Kindergarten" }, "geometry": { "type": "Point", "coordinates": [ 174.847488, -36.878248 ] } },
{ "type": "Feature", "properties": { "Service Name": "Sandringham Kindergarten", "Latitude": -36.879336, "Longitude": 174.739644, "Territorial Authority": "Auckland", "Service Type": "Free Kindergarten", "20 Hours ECE": "Yes", "Max. Licenced Positions": 30.0, "Under 2's": 0.0, "tooltip": "Sandringham Kindergarten" }, "geometry": { "type": "Point", "coordinates": [ 174.739644, -36.879336 ] } },
{ "type": "Feature", "properties": { "Service Name": "Sturges Road Kindergarten", "Latitude": -36.881749, "Longitude": 174.616226, "Territorial Authority": "Auckland", "Service Type": "Free Kindergarten", "20 Hours ECE": "Yes", "Max. Licenced Positions": 40.0, "Under 2's": 0.0, "tooltip": "Sturges Road Kindergarten" }, "geometry": { "type": "Point", "coordinates": [ 174.616226, -36.881749 ] } },
{ "type": "Feature", "properties": { "Service Name": "Whenuapai Kindergarten", "Latitude": -36.793119, "Longitude": 174.619521, "Territorial Authority": "Auckland", "Service Type": "Free Kindergarten", "20 Hours ECE": "Yes", "Max. Licenced Positions": 40.0, "Under 2's": 0.0, "tooltip": "Whenuapai Kindergarten" }, "geometry": { "type": "Point", "coordinates": [ 174.619521, -36.793119 ] } },
{ "type": "Feature", "properties": { "Service Name": "Sunnyvale Kindergarten", "Latitude": -36.891229, "Longitude": 174.64201, "Territorial Authority": "Auckland", "Service Type": "Free Kindergarten", "20 Hours ECE": "Yes", "Max. Licenced Positions": 40.0, "Under 2's": 0.0, "tooltip": "Sunnyvale Kindergarten" }, "geometry": { "type": "Point", "coordinates": [ 174.64201, -36.891229 ] } },
{ "type": "Feature", "properties": { "Service Name": "Takapuna Kindergarten", "Latitude": -36.79257, "Longitude": 174.772942, "Territorial Authority": "Auckland", "Service Type": "Free Kindergarten", "20 Hours ECE": "Yes", "Max. Licenced Positions": 40.0, "Under 2's": 0.0, "tooltip": "Takapuna Kindergarten" }, "geometry": { "type": "Point", "coordinates": [ 174.772942, -36.79257 ] } },
{ "type": "Feature", "properties": { "Service Name": "Te Atatu Peninsula Kindergarten", "Latitude": -36.839915, "Longitude": 174.654614, "Territorial Authority": "Auckland", "Service Type": "Free Kindergarten", "20 Hours ECE": "Yes", "Max. Licenced Positions": 40.0, "Under 2's": 0.0, "tooltip": "Te Atatu Peninsula Kindergarten" }, "geometry": { "type": "Point", "coordinates": [ 174.654614, -36.839915 ] } },
{ "type": "Feature", "properties": { "Service Name": "Te Atatu South Kindergarten", "Latitude": -36.879241, "Longitude": 174.652227, "Territorial Authority": "Auckland", "Service Type": "Free Kindergarten", "20 Hours ECE": "Yes", "Max. Licenced Positions": 40.0, "Under 2's": 0.0, "tooltip": "Te Atatu South Kindergarten" }, "geometry": { "type": "Point", "coordinates": [ 174.652227, -36.879241 ] } },
{ "type": "Feature", "properties": { "Service Name": "Titirangi Kindergarten", "Latitude": -36.938661, "Longitude": 174.655216, "Territorial Authority": "Auckland", "Service Type": "Free Kindergarten", "20 Hours ECE": "Yes", "Max. Licenced Positions": 40.0, "Under 2's": 0.0, "tooltip": "Titirangi Kindergarten" }, "geometry": { "type": "Point", "coordinates": [ 174.655216, -36.938661 ] } },
{ "type": "Feature", "properties": { "Service Name": "Westlake Forrest Hill Kindergarten", "Latitude": -36.769357, "Longitude": 174.750782, "Territorial Authority": "Auckland", "Service Type": "Free Kindergarten", "20 Hours ECE": "Yes", "Max. Licenced Positions": 40.0, "Under 2's": 0.0, "tooltip": "Westlake Forrest Hill Kindergarten" }, "geometry": { "type": "Point", "coordinates": [ 174.750782, -36.769357 ] } },
{ "type": "Feature", "properties": { "Service Name": "Westmere Kindergarten", "Latitude": -36.857768, "Longitude": 174.721631, "Territorial Authority": "Auckland", "Service Type": "Free Kindergarten", "20 Hours ECE": "Yes", "Max. Licenced Positions": 40.0, "Under 2's": 0.0, "tooltip": "Westmere Kindergarten" }, "geometry": { "type": "Point", "coordinates": [ 174.721631, -36.857768 ] } },
{ "type": "Feature", "properties": { "Service Name": "Farm Cove Kindergarten", "Latitude": -36.895773, "Longitude": 174.895347, "Territorial Authority": "Auckland", "Service Type": "Free Kindergarten", "20 Hours ECE": "Yes", "Max. Licenced Positions": 40.0, "Under 2's": 0.0, "tooltip": "Farm Cove Kindergarten" }, "geometry": { "type": "Point", "coordinates": [ 174.895347, -36.895773 ] } },
{ "type": "Feature", "properties": { "Service Name": "Yendarra Kindergarten", "Latitude": -36.966397, "Longitude": 174.878133, "Territorial Authority": "Auckland", "Service Type": "Free Kindergarten", "20 Hours ECE": "Yes", "Max. Licenced Positions": 30.0, "Under 2's": 0.0, "tooltip": "Yendarra Kindergarten" }, "geometry": { "type": "Point", "coordinates": [ 174.878133, -36.966397 ] } },
{ "type": "Feature", "properties": { "Service Name": "Alfriston Road Kindergarten", "Latitude": -37.022995, "Longitude": 174.902033, "Territorial Authority": "Auckland", "Service Type": "Free Kindergarten", "20 Hours ECE": "Yes", "Max. Licenced Positions": 40.0, "Under 2's": 0.0, "tooltip": "Alfriston Road Kindergarten" }, "geometry": { "type": "Point", "coordinates": [ 174.902033, -37.022995 ] } },
{ "type": "Feature", "properties": { "Service Name": "Clayton Park Kindergarten", "Latitude": -37.040792, "Longitude": 174.89674, "Territorial Authority": "Auckland", "Service Type": "Free Kindergarten", "20 Hours ECE": "Yes", "Max. Licenced Positions": 40.0, "Under 2's": 0.0, "tooltip": "Clayton Park Kindergarten" }, "geometry": { "type": "Point", "coordinates": [ 174.89674, -37.040792 ] } },
{ "type": "Feature", "properties": { "Service Name": "Kawakawa Bay Kindergarten", "Latitude": -36.950142, "Longitude": 175.170459, "Territorial Authority": "Auckland", "Service Type": "Free Kindergarten", "20 Hours ECE": "Yes", "Max. Licenced Positions": 20.0, "Under 2's": 0.0, "tooltip": "Kawakawa Bay Kindergarten" }, "geometry": { "type": "Point", "coordinates": [ 175.170459, -36.950142 ] } },
{ "type": "Feature", "properties": { "Service Name": "Finlayson Park Kindergarten", "Latitude": -37.031785, "Longitude": 174.872213, "Territorial Authority": "Auckland", "Service Type": "Free Kindergarten", "20 Hours ECE": "Yes", "Max. Licenced Positions": 40.0, "Under 2's": 0.0, "tooltip": "Finlayson Park Kindergarten" }, "geometry": { "type": "Point", "coordinates": [ 174.872213, -37.031785 ] } },
{ "type": "Feature", "properties": { "Service Name": "George Street Kindergarten", "Latitude": -37.255681, "Longitude": 174.731194, "Territorial Authority": "Auckland", "Service Type": "Free Kindergarten", "20 Hours ECE": "Yes", "Max. Licenced Positions": 40.0, "Under 2's": 0.0, "tooltip": "George Street Kindergarten" }, "geometry": { "type": "Point", "coordinates": [ 174.731194, -37.255681 ] } },
{ "type": "Feature", "properties": { "Service Name": "Hill Park Kindergarten", "Latitude": -37.012999, "Longitude": 174.897917, "Territorial Authority": "Auckland", "Service Type": "Free Kindergarten", "20 Hours ECE": "Yes", "Max. Licenced Positions": 40.0, "Under 2's": 0.0, "tooltip": "Hill Park Kindergarten" }, "geometry": { "type": "Point", "coordinates": [ 174.897917, -37.012999 ] } },
{ "type": "Feature", "properties": { "Service Name": "Homai Kindergarten", "Latitude": -37.016784, "Longitude": 174.867872, "Territorial Authority": "Auckland", "Service Type": "Free Kindergarten", "20 Hours ECE": "Yes", "Max. Licenced Positions": 40.0, "Under 2's": 0.0, "tooltip": "Homai Kindergarten" }, "geometry": { "type": "Point", "coordinates": [ 174.867872, -37.016784 ] } },
{ "type": "Feature", "properties": { "Service Name": "Mason Avenue Kindergarten", "Latitude": -37.208595, "Longitude": 174.898111, "Territorial Authority": "Auckland", "Service Type": "Free Kindergarten", "20 Hours ECE": "Yes", "Max. Licenced Positions": 40.0, "Under 2's": 0.0, "tooltip": "Mason Avenue Kindergarten" }, "geometry": { "type": "Point", "coordinates": [ 174.898111, -37.208595 ] } },
{ "type": "Feature", "properties": { "Service Name": "Nina Busing Kindergarten", "Latitude": -37.061439, "Longitude": 174.950188, "Territorial Authority": "Auckland", "Service Type": "Free Kindergarten", "20 Hours ECE": "Yes", "Max. Licenced Positions": 40.0, "Under 2's": 0.0, "tooltip": "Nina Busing Kindergarten" }, "geometry": { "type": "Point", "coordinates": [ 174.950188, -37.061439 ] } },
{ "type": "Feature", "properties": { "Service Name": "Papakura West Kindergarten", "Latitude": -37.068679, "Longitude": 174.936542, "Territorial Authority": "Auckland", "Service Type": "Free Kindergarten", "20 Hours ECE": "Yes", "Max. Licenced Positions": 40.0, "Under 2's": 0.0, "tooltip": "Papakura West Kindergarten" }, "geometry": { "type": "Point", "coordinates": [ 174.936542, -37.068679 ] } },
{ "type": "Feature", "properties": { "Service Name": "Papakura North Kindergarten", "Latitude": -37.055603, "Longitude": 174.943986, "Territorial Authority": "Auckland", "Service Type": "Free Kindergarten", "20 Hours ECE": "Yes", "Max. Licenced Positions": 40.0, "Under 2's": 0.0, "tooltip": "Papakura North Kindergarten" }, "geometry": { "type": "Point", "coordinates": [ 174.943986, -37.055603 ] } },
{ "type": "Feature", "properties": { "Service Name": "Pukekohe Central Kindergarten", "Latitude": -37.200247, "Longitude": 174.899951, "Territorial Authority": "Auckland", "Service Type": "Free Kindergarten", "20 Hours ECE": "Yes", "Max. Licenced Positions": 40.0, "Under 2's": 0.0, "tooltip": "Pukekohe Central Kindergarten" }, "geometry": { "type": "Point", "coordinates": [ 174.899951, -37.200247 ] } },
{ "type": "Feature", "properties": { "Service Name": "Redoubt North Kindergarten", "Latitude": -36.986244, "Longitude": 174.890206, "Territorial Authority": "Auckland", "Service Type": "Free Kindergarten", "20 Hours ECE": "Yes", "Max. Licenced Positions": 40.0, "Under 2's": 0.0, "tooltip": "Redoubt North Kindergarten" }, "geometry": { "type": "Point", "coordinates": [ 174.890206, -36.986244 ] } },
{ "type": "Feature", "properties": { "Service Name": "Roscommon Kindergarten", "Latitude": -37.027095, "Longitude": 174.862981, "Territorial Authority": "Auckland", "Service Type": "Free Kindergarten", "20 Hours ECE": "Yes", "Max. Licenced Positions": 40.0, "Under 2's": 0.0, "tooltip": "Roscommon Kindergarten" }, "geometry": { "type": "Point", "coordinates": [ 174.862981, -37.027095 ] } },
{ "type": "Feature", "properties": { "Service Name": "Waiuku Kindergarten", "Latitude": -37.249164, "Longitude": 174.73226, "Territorial Authority": "Auckland", "Service Type": "Free Kindergarten", "20 Hours ECE": "Yes", "Max. Licenced Positions": 40.0, "Under 2's": 0.0, "tooltip": "Waiuku Kindergarten" }, "geometry": { "type": "Point", "coordinates": [ 174.73226, -37.249164 ] } },
{ "type": "Feature", "properties": { "Service Name": "Aberdeen Kindergarten", "Latitude": -37.789044, "Longitude": 175.244447, "Territorial Authority": "Hamilton City", "Service Type": "Free Kindergarten", "20 Hours ECE": "Yes", "Max. Licenced Positions": 45.0, "Under 2's": 0.0, "tooltip": "Aberdeen Kindergarten" }, "geometry": { "type": "Point", "coordinates": [ 175.244447, -37.789044 ] } },
{ "type": "Feature", "properties": { "Service Name": "Bellmont Avenue Kindergarten", "Latitude": -37.755201, "Longitude": 175.278602, "Territorial Authority": "Hamilton City", "Service Type": "Free Kindergarten", "20 Hours ECE": "Yes", "Max. Licenced Positions": 30.0, "Under 2's": 0.0, "tooltip": "Bellmont Avenue Kindergarten" }, "geometry": { "type": "Point", "coordinates": [ 175.278602, -37.755201 ] } },
{ "type": "Feature", "properties": { "Service Name": "Cambridge Kindergarten", "Latitude": -37.887714, "Longitude": 175.466245, "Territorial Authority": "Waipa District", "Service Type": "Free Kindergarten", "20 Hours ECE": "Yes", "Max. Licenced Positions": 40.0, "Under 2's": 0.0, "tooltip": "Cambridge Kindergarten" }, "geometry": { "type": "Point", "coordinates": [ 175.466245, -37.887714 ] } },
{ "type": "Feature", "properties": { "Service Name": "Chartwell Kindergarten", "Latitude": -37.751897, "Longitude": 175.270236, "Territorial Authority": "Hamilton City", "Service Type": "Free Kindergarten", "20 Hours ECE": "Yes", "Max. Licenced Positions": 45.0, "Under 2's": 0.0, "tooltip": "Chartwell Kindergarten" }, "geometry": { "type": "Point", "coordinates": [ 175.270236, -37.751897 ] } },
{ "type": "Feature", "properties": { "Service Name": "Deanwell Kindergarten", "Latitude": -37.820254, "Longitude": 175.278568, "Territorial Authority": "Hamilton City", "Service Type": "Free Kindergarten", "20 Hours ECE": "Yes", "Max. Licenced Positions": 40.0, "Under 2's": 0.0, "tooltip": "Deanwell Kindergarten" }, "geometry": { "type": "Point", "coordinates": [ 175.278568, -37.820254 ] } },
{ "type": "Feature", "properties": { "Service Name": "Dinsdale Kindergarten", "Latitude": -37.797906, "Longitude": 175.234968, "Territorial Authority": "Hamilton City", "Service Type": "Free Kindergarten", "20 Hours ECE": "Yes", "Max. Licenced Positions": 40.0, "Under 2's": 0.0, "tooltip": "Dinsdale Kindergarten" }, "geometry": { "type": "Point", "coordinates": [ 175.234968, -37.797906 ] } },
{ "type": "Feature", "properties": { "Service Name": "Fairfield Kindergarten", "Latitude": -37.765829, "Longitude": 175.286227, "Territorial Authority": "Hamilton City", "Service Type": "Free Kindergarten", "20 Hours ECE": "Yes", "Max. Licenced Positions": 45.0, "Under 2's": 0.0, "tooltip": "Fairfield Kindergarten" }, "geometry": { "type": "Point", "coordinates": [ 175.286227, -37.765829 ] } },
{ "type": "Feature", "properties": { "Service Name": "Frankton Kindergarten", "Latitude": -37.79278, "Longitude": 175.251926, "Territorial Authority": "Hamilton City", "Service Type": "Free Kindergarten", "20 Hours ECE": "Yes", "Max. Licenced Positions": 47.0, "Under 2's": 0.0, "tooltip": "Frankton Kindergarten" }, "geometry": { "type": "Point", "coordinates": [ 175.251926, -37.79278 ] } },
{ "type": "Feature", "properties": { "Service Name": "Galbraith Kindergarten", "Latitude": -37.665422, "Longitude": 175.145296, "Territorial Authority": "Waikato District", "Service Type": "Free Kindergarten", "20 Hours ECE": "Yes", "Max. Licenced Positions": 40.0, "Under 2's": 0.0, "tooltip": "Galbraith Kindergarten" }, "geometry": { "type": "Point", "coordinates": [ 175.145296, -37.665422 ] } },
{ "type": "Feature", "properties": { "Service Name": "Grandview Kindergarten", "Latitude": -37.779619, "Longitude": 175.237022, "Territorial Authority": "Hamilton City", "Service Type": "Free Kindergarten", "20 Hours ECE": "Yes", "Max. Licenced Positions": 40.0, "Under 2's": 0.0, "tooltip": "Grandview Kindergarten" }, "geometry": { "type": "Point", "coordinates": [ 175.237022, -37.779619 ] } },
{ "type": "Feature", "properties": { "Service Name": "Hamilton West Kindergarten", "Latitude": -37.800965, "Longitude": 175.283349, "Territorial Authority": "Hamilton City", "Service Type": "Free Kindergarten", "20 Hours ECE": "Yes", "Max. Licenced Positions": 40.0, "Under 2's": 0.0, "tooltip": "Hamilton West Kindergarten" }, "geometry": { "type": "Point", "coordinates": [ 175.283349, -37.800965 ] } },
{ "type": "Feature", "properties": { "Service Name": "Hillcrest Kindergarten", "Latitude": -37.795722, "Longitude": 175.320587, "Territorial Authority": "Hamilton City", "Service Type": "Free Kindergarten", "20 Hours ECE": "Yes", "Max. Licenced Positions": 43.0, "Under 2's": 0.0, "tooltip": "Hillcrest Kindergarten" }, "geometry": { "type": "Point", "coordinates": [ 175.320587, -37.795722 ] } },
{ "type": "Feature", "properties": { "Service Name": "Hukanui Kindergarten", "Latitude": -37.748221, "Longitude": 175.280256, "Territorial Authority": "Hamilton City", "Service Type": "Free Kindergarten", "20 Hours ECE": "Yes", "Max. Licenced Positions": 40.0, "Under 2's": 0.0, "tooltip": "Hukanui Kindergarten" }, "geometry": { "type": "Point", "coordinates": [ 175.280256, -37.748221 ] } },
{ "type": "Feature", "properties": { "Service Name": "Insoll Kindergarten", "Latitude": -37.760183, "Longitude": 175.293024, "Territorial Authority": "Hamilton City", "Service Type": "Free Kindergarten", "20 Hours ECE": "Yes", "Max. Licenced Positions": 40.0, "Under 2's": 0.0, "tooltip": "Insoll Kindergarten" }, "geometry": { "type": "Point", "coordinates": [ 175.293024, -37.760183 ] } },
{ "type": "Feature", "properties": { "Service Name": "James Gray Kindergarten", "Latitude": -37.899313, "Longitude": 175.482123, "Territorial Authority": "Waipa District", "Service Type": "Free Kindergarten", "20 Hours ECE": "Yes", "Max. Licenced Positions": 45.0, "Under 2's": 0.0, "tooltip": "James Gray Kindergarten" }, "geometry": { "type": "Point", "coordinates": [ 175.482123, -37.899313 ] } },
{ "type": "Feature", "properties": { "Service Name": "Jamieson Kindergarten", "Latitude": -37.770481, "Longitude": 175.254825, "Territorial Authority": "Hamilton City", "Service Type": "Free Kindergarten", "20 Hours ECE": "Yes", "Max. Licenced Positions": 45.0, "Under 2's": 0.0, "tooltip": "Jamieson Kindergarten" }, "geometry": { "type": "Point", "coordinates": [ 175.254825, -37.770481 ] } },
{ "type": "Feature", "properties": { "Service Name": "Leamington Kindergarten", "Latitude": -37.908192, "Longitude": 175.473378, "Territorial Authority": "Waipa District", "Service Type": "Free Kindergarten", "20 Hours ECE": "Yes", "Max. Licenced Positions": 40.0, "Under 2's": 0.0, "tooltip": "Leamington Kindergarten" }, "geometry": { "type": "Point", "coordinates": [ 175.473378, -37.908192 ] } },
{ "type": "Feature", "properties": { "Service Name": "Melville Kindergarten", "Latitude": -37.807539, "Longitude": 175.288774, "Territorial Authority": "Hamilton City", "Service Type": "Free Kindergarten", "20 Hours ECE": "Yes", "Max. Licenced Positions": 40.0, "Under 2's": 0.0, "tooltip": "Melville Kindergarten" }, "geometry": { "type": "Point", "coordinates": [ 175.288774, -37.807539 ] } },
{ "type": "Feature", "properties": { "Service Name": "Miropiko Kindergarten", "Latitude": -37.778842, "Longitude": 175.281909, "Territorial Authority": "Hamilton City", "Service Type": "Free Kindergarten", "20 Hours ECE": "Yes", "Max. Licenced Positions": 40.0, "Under 2's": 0.0, "tooltip": "Miropiko Kindergarten" }, "geometry": { "type": "Point", "coordinates": [ 175.281909, -37.778842 ] } },
{ "type": "Feature", "properties": { "Service Name": "Newcastle Kindergarten", "Latitude": -37.660028, "Longitude": 175.151774, "Territorial Authority": "Waikato District", "Service Type": "Free Kindergarten", "20 Hours ECE": "Yes", "Max. Licenced Positions": 50.0, "Under 2's": 0.0, "tooltip": "Newcastle Kindergarten" }, "geometry": { "type": "Point", "coordinates": [ 175.151774, -37.660028 ] } },
{ "type": "Feature", "properties": { "Service Name": "Peachgrove Kindergarten", "Latitude": -37.792504, "Longitude": 175.300752, "Territorial Authority": "Hamilton City", "Service Type": "Free Kindergarten", "20 Hours ECE": "Yes", "Max. Licenced Positions": 40.0, "Under 2's": 0.0, "tooltip": "Peachgrove Kindergarten" }, "geometry": { "type": "Point", "coordinates": [ 175.300752, -37.792504 ] } },
{ "type": "Feature", "properties": { "Service Name": "Pukete Kindergarten", "Latitude": -37.745547, "Longitude": 175.241902, "Territorial Authority": "Hamilton City", "Service Type": "Free Kindergarten", "20 Hours ECE": "Yes", "Max. Licenced Positions": 40.0, "Under 2's": 0.0, "tooltip": "Pukete Kindergarten" }, "geometry": { "type": "Point", "coordinates": [ 175.241902, -37.745547 ] } },
{ "type": "Feature", "properties": { "Service Name": "Raglan Kindergarten", "Latitude": -37.802867, "Longitude": 174.869775, "Territorial Authority": "Waikato District", "Service Type": "Free Kindergarten", "20 Hours ECE": "Yes", "Max. Licenced Positions": 40.0, "Under 2's": 0.0, "tooltip": "Raglan Kindergarten" }, "geometry": { "type": "Point", "coordinates": [ 174.869775, -37.802867 ] } },
{ "type": "Feature", "properties": { "Service Name": "St Andrews Kindergarten", "Latitude": -37.753186, "Longitude": 175.255218, "Territorial Authority": "Hamilton City", "Service Type": "Free Kindergarten", "20 Hours ECE": "Yes", "Max. Licenced Positions": 40.0, "Under 2's": 0.0, "tooltip": "St Andrews Kindergarten" }, "geometry": { "type": "Point", "coordinates": [ 175.255218, -37.753186 ] } },
{ "type": "Feature", "properties": { "Service Name": "Glenview Kindergarten", "Latitude": -37.820553, "Longitude": 175.293033, "Territorial Authority": "Hamilton City", "Service Type": "Free Kindergarten", "20 Hours ECE": "Yes", "Max. Licenced Positions": 45.0, "Under 2's": 0.0, "tooltip": "Glenview Kindergarten" }, "geometry": { "type": "Point", "coordinates": [ 175.293033, -37.820553 ] } },
{ "type": "Feature", "properties": { "Service Name": "Whitiora Kindergarten", "Latitude": -37.779084, "Longitude": 175.269683, "Territorial Authority": "Hamilton City", "Service Type": "Free Kindergarten", "20 Hours ECE": "Yes", "Max. Licenced Positions": 45.0, "Under 2's": 0.0, "tooltip": "Whitiora Kindergarten" }, "geometry": { "type": "Point", "coordinates": [ 175.269683, -37.779084 ] } },
{ "type": "Feature", "properties": { "Service Name": "Central Kids Kindergartens - Paeroa", "Latitude": -37.380561, "Longitude": 175.674004, "Territorial Authority": "Hauraki District", "Service Type": "Free Kindergarten", "20 Hours ECE": "Yes", "Max. Licenced Positions": 40.0, "Under 2's": 0.0, "tooltip": "Central Kids Kindergartens - Paeroa" }, "geometry": { "type": "Point", "coordinates": [ 175.674004, -37.380561 ] } },
{ "type": "Feature", "properties": { "Service Name": "Te Aroha Kindergarten", "Latitude": -37.541509, "Longitude": 175.712786, "Territorial Authority": "Matamata-Piako District", "Service Type": "Free Kindergarten", "20 Hours ECE": "Yes", "Max. Licenced Positions": 50.0, "Under 2's": 0.0, "tooltip": "Te Aroha Kindergarten" }, "geometry": { "type": "Point", "coordinates": [ 175.712786, -37.541509 ] } },
{ "type": "Feature", "properties": { "Service Name": "Central Kids Kindergartens - Thames", "Latitude": -37.144665, "Longitude": 175.547744, "Territorial Authority": "Thames-Coromandel District", "Service Type": "Free Kindergarten", "20 Hours ECE": "Yes", "Max. Licenced Positions": 40.0, "Under 2's": 0.0, "tooltip": "Central Kids Kindergartens - Thames" }, "geometry": { "type": "Point", "coordinates": [ 175.547744, -37.144665 ] } },
{ "type": "Feature", "properties": { "Service Name": "Central Kids Kindergartens - Apanui", "Latitude": -37.956751, "Longitude": 176.987427, "Territorial Authority": "Whakatane District", "Service Type": "Free Kindergarten", "20 Hours ECE": "Yes", "Max. Licenced Positions": 40.0, "Under 2's": 0.0, "tooltip": "Central Kids Kindergartens - Apanui" }, "geometry": { "type": "Point", "coordinates": [ 176.987427, -37.956751 ] } },
{ "type": "Feature", "properties": { "Service Name": "Central Kids Kindergartens - Arohanui", "Latitude": -38.241064, "Longitude": 175.866633, "Territorial Authority": "South Waikato District", "Service Type": "Free Kindergarten", "20 Hours ECE": "Yes", "Max. Licenced Positions": 40.0, "Under 2's": 0.0, "tooltip": "Central Kids Kindergartens - Arohanui" }, "geometry": { "type": "Point", "coordinates": [ 175.866633, -38.241064 ] } },
{ "type": "Feature", "properties": { "Service Name": "Central Kids Kindergartens - Balmoral ", "Latitude": -38.237326, "Longitude": 175.858901, "Territorial Authority": "South Waikato District", "Service Type": "Free Kindergarten", "20 Hours ECE": "Yes", "Max. Licenced Positions": 40.0, "Under 2's": 0.0, "tooltip": "Central Kids Kindergartens - Balmoral " }, "geometry": { "type": "Point", "coordinates": [ 175.858901, -38.237326 ] } },
{ "type": "Feature", "properties": { "Service Name": "Central Kids Kindergartens - Charles ", "Latitude": -38.043595, "Longitude": 175.777745, "Territorial Authority": "South Waikato District", "Service Type": "Free Kindergarten", "20 Hours ECE": "Yes", "Max. Licenced Positions": 40.0, "Under 2's": 0.0, "tooltip": "Central Kids Kindergartens - Charles " }, "geometry": { "type": "Point", "coordinates": [ 175.777745, -38.043595 ] } },
{ "type": "Feature", "properties": { "Service Name": "Central Kids Kindergartens - Clyde Street", "Latitude": -38.223927, "Longitude": 175.865617, "Territorial Authority": "South Waikato District", "Service Type": "Free Kindergarten", "20 Hours ECE": "Yes", "Max. Licenced Positions": 40.0, "Under 2's": 0.0, "tooltip": "Central Kids Kindergartens - Clyde Street" }, "geometry": { "type": "Point", "coordinates": [ 175.865617, -38.223927 ] } },
{ "type": "Feature", "properties": { "Service Name": "Central Kids Kindergartens - David Henry", "Latitude": -38.225097, "Longitude": 175.852368, "Territorial Authority": "South Waikato District", "Service Type": "Free Kindergarten", "20 Hours ECE": "Yes", "Max. Licenced Positions": 40.0, "Under 2's": 0.0, "tooltip": "Central Kids Kindergartens - David Henry" }, "geometry": { "type": "Point", "coordinates": [ 175.852368, -38.225097 ] } },
{ "type": "Feature", "properties": { "Service Name": "Central Kids Kindergartens - Edgecumbe", "Latitude": -37.978074, "Longitude": 176.826279, "Territorial Authority": "Whakatane District", "Service Type": "Free Kindergarten", "20 Hours ECE": "Yes", "Max. Licenced Positions": 40.0, "Under 2's": 0.0, "tooltip": "Central Kids Kindergartens - Edgecumbe" }, "geometry": { "type": "Point", "coordinates": [ 176.826279, -37.978074 ] } },
{ "type": "Feature", "properties": { "Service Name": "Central Kids Kindergartens - Elstree", "Latitude": -38.151236, "Longitude": 176.240575, "Territorial Authority": "Rotorua District", "Service Type": "Free Kindergarten", "20 Hours ECE": "Yes", "Max. Licenced Positions": 40.0, "Under 2's": 0.0, "tooltip": "Central Kids Kindergartens - Elstree" }, "geometry": { "type": "Point", "coordinates": [ 176.240575, -38.151236 ] } },
{ "type": "Feature", "properties": { "Service Name": "Central Kids Kindergartens - Fordlands", "Latitude": -38.145138, "Longitude": 176.226109, "Territorial Authority": "Rotorua District", "Service Type": "Free Kindergarten", "20 Hours ECE": "Yes", "Max. Licenced Positions": 40.0, "Under 2's": 0.0, "tooltip": "Central Kids Kindergartens - Fordlands" }, "geometry": { "type": "Point", "coordinates": [ 176.226109, -38.145138 ] } },
{ "type": "Feature", "properties": { "Service Name": "Central Kids Kindergartens - Garaway", "Latitude": -37.967236, "Longitude": 176.979479, "Territorial Authority": "Whakatane District", "Service Type": "Free Kindergarten", "20 Hours ECE": "Yes", "Max. Licenced Positions": 40.0, "Under 2's": 0.0, "tooltip": "Central Kids Kindergartens - Garaway" }, "geometry": { "type": "Point", "coordinates": [ 176.979479, -37.967236 ] } },
{ "type": "Feature", "properties": { "Service Name": "Central Kids Kindergartens - Glenshea ", "Latitude": -38.051726, "Longitude": 175.7772, "Territorial Authority": "South Waikato District", "Service Type": "Free Kindergarten", "20 Hours ECE": "Yes", "Max. Licenced Positions": 40.0, "Under 2's": 0.0, "tooltip": "Central Kids Kindergartens - Glenshea " }, "geometry": { "type": "Point", "coordinates": [ 175.7772, -38.051726 ] } },
{ "type": "Feature", "properties": { "Service Name": "Central Kids Kindergartens - Hazelmere ", "Latitude": -38.013034, "Longitude": 175.333353, "Territorial Authority": "Waipa District", "Service Type": "Free Kindergarten", "20 Hours ECE": "Yes", "Max. Licenced Positions": 40.0, "Under 2's": 0.0, "tooltip": "Central Kids Kindergartens - Hazelmere " }, "geometry": { "type": "Point", "coordinates": [ 175.333353, -38.013034 ] } },
{ "type": "Feature", "properties": { "Service Name": "Central Kids Kindergartens - Hinemoa", "Latitude": -38.690175, "Longitude": 176.097337, "Territorial Authority": "Taupo District", "Service Type": "Free Kindergarten", "20 Hours ECE": "Yes", "Max. Licenced Positions": 40.0, "Under 2's": 0.0, "tooltip": "Central Kids Kindergartens - Hinemoa" }, "geometry": { "type": "Point", "coordinates": [ 176.097337, -38.690175 ] } },
{ "type": "Feature", "properties": { "Service Name": "Central Kids Kindergartens - Homedale", "Latitude": -38.136601, "Longitude": 176.210205, "Territorial Authority": "Rotorua District", "Service Type": "Free Kindergarten", "20 Hours ECE": "Yes", "Max. Licenced Positions": 45.0, "Under 2's": 0.0, "tooltip": "Central Kids Kindergartens - Homedale" }, "geometry": { "type": "Point", "coordinates": [ 176.210205, -38.136601 ] } },
{ "type": "Feature", "properties": { "Service Name": "Central Kids Kindergartens - Huntly", "Latitude": -37.555294, "Longitude": 175.160755, "Territorial Authority": "Waikato District", "Service Type": "Free Kindergarten", "20 Hours ECE": "Yes", "Max. Licenced Positions": 40.0, "Under 2's": 0.0, "tooltip": "Central Kids Kindergartens - Huntly" }, "geometry": { "type": "Point", "coordinates": [ 175.160755, -37.555294 ] } },
{ "type": "Feature", "properties": { "Service Name": "Central Kids Kindergartens - Huntly West ", "Latitude": -37.565429, "Longitude": 175.147124, "Territorial Authority": "Waikato District", "Service Type": "Free Kindergarten", "20 Hours ECE": "Yes", "Max. Licenced Positions": 40.0, "Under 2's": 0.0, "tooltip": "Central Kids Kindergartens - Huntly West " }, "geometry": { "type": "Point", "coordinates": [ 175.147124, -37.565429 ] } },
{ "type": "Feature", "properties": { "Service Name": "Central Kids Kindergartens - Jackson Park", "Latitude": -38.160319, "Longitude": 176.23371, "Territorial Authority": "Rotorua District", "Service Type": "Free Kindergarten", "20 Hours ECE": "Yes", "Max. Licenced Positions": 45.0, "Under 2's": 0.0, "tooltip": "Central Kids Kindergartens - Jackson Park" }, "geometry": { "type": "Point", "coordinates": [ 176.23371, -38.160319 ] } },
{ "type": "Feature", "properties": { "Service Name": "Central Kids Kindergartens - Kihikihi", "Latitude": -38.036296, "Longitude": 175.346043, "Territorial Authority": "Waipa District", "Service Type": "Free Kindergarten", "20 Hours ECE": "Yes", "Max. Licenced Positions": 40.0, "Under 2's": 0.0, "tooltip": "Central Kids Kindergartens - Kihikihi" }, "geometry": { "type": "Point", "coordinates": [ 175.346043, -38.036296 ] } },
{ "type": "Feature", "properties": { "Service Name": "Central Kids Kindergartens - Laughton", "Latitude": -38.686314, "Longitude": 176.082141, "Territorial Authority": "Taupo District", "Service Type": "Free Kindergarten", "20 Hours ECE": "Yes", "Max. Licenced Positions": 44.0, "Under 2's": 0.0, "tooltip": "Central Kids Kindergartens - Laughton" }, "geometry": { "type": "Point", "coordinates": [ 176.082141, -38.686314 ] } },
{ "type": "Feature", "properties": { "Service Name": "Central Kids Kindergartens - Mill Crescent", "Latitude": -37.815335, "Longitude": 175.770146, "Territorial Authority": "Matamata-Piako District", "Service Type": "Free Kindergarten", "20 Hours ECE": "Yes", "Max. Licenced Positions": 40.0, "Under 2's": 0.0, "tooltip": "Central Kids Kindergartens - Mill Crescent" }, "geometry": { "type": "Point", "coordinates": [ 175.770146, -37.815335 ] } },
{ "type": "Feature", "properties": { "Service Name": "Central Kids Kindergartens - Morrinsville ", "Latitude": -37.654904, "Longitude": 175.526654, "Territorial Authority": "Matamata-Piako District", "Service Type": "Free Kindergarten", "20 Hours ECE": "Yes", "Max. Licenced Positions": 40.0, "Under 2's": 0.0, "tooltip": "Central Kids Kindergartens - Morrinsville " }, "geometry": { "type": "Point", "coordinates": [ 175.526654, -37.654904 ] } },
{ "type": "Feature", "properties": { "Service Name": "Karamuramu Kindergarten", "Latitude": -38.460571, "Longitude": 176.707775, "Territorial Authority": "Whakatane District", "Service Type": "Free Kindergarten", "20 Hours ECE": "Yes", "Max. Licenced Positions": 45.0, "Under 2's": 0.0, "tooltip": "Karamuramu Kindergarten" }, "geometry": { "type": "Point", "coordinates": [ 176.707775, -38.460571 ] } },
{ "type": "Feature", "properties": { "Service Name": "Central Kids Kindergartens - Ngongotah", "Latitude": -38.079497, "Longitude": 176.210887, "Territorial Authority": "Rotorua District", "Service Type": "Free Kindergarten", "20 Hours ECE": "Yes", "Max. Licenced Positions": 45.0, "Under 2's": 0.0, "tooltip": "Central Kids Kindergartens - Ngongotah" }, "geometry": { "type": "Point", "coordinates": [ 176.210887, -38.079497 ] } },
{ "type": "Feature", "properties": { "Service Name": "Central Kids Kindergartens - ptiki", "Latitude": -38.010435, "Longitude": 177.288114, "Territorial Authority": "Opotiki District", "Service Type": "Free Kindergarten", "20 Hours ECE": "Yes", "Max. Licenced Positions": 50.0, "Under 2's": 0.0, "tooltip": "Central Kids Kindergartens - ptiki" }, "geometry": { "type": "Point", "coordinates": [ 177.288114, -38.010435 ] } },
{ "type": "Feature", "properties": { "Service Name": "Central Kids Kindergartens - Otorohanga", "Latitude": -38.184118, "Longitude": 175.209365, "Territorial Authority": "Otorohanga District", "Service Type": "Free Kindergarten", "20 Hours ECE": "Yes", "Max. Licenced Positions": 40.0, "Under 2's": 0.0, "tooltip": "Central Kids Kindergartens - Otorohanga" }, "geometry": { "type": "Point", "coordinates": [ 175.209365, -38.184118 ] } },
{ "type": "Feature", "properties": { "Service Name": "Central Kids Kindergartens - whata", "Latitude": -38.134545, "Longitude": 176.30353, "Territorial Authority": "Rotorua District", "Service Type": "Free Kindergarten", "20 Hours ECE": "Yes", "Max. Licenced Positions": 40.0, "Under 2's": 0.0, "tooltip": "Central Kids Kindergartens - whata" }, "geometry": { "type": "Point", "coordinates": [ 176.30353, -38.134545 ] } },
{ "type": "Feature", "properties": { "Service Name": "Central Kids Kindergartens - Paraone ", "Latitude": -38.883093, "Longitude": 175.273779, "Territorial Authority": "Ruapehu District", "Service Type": "Free Kindergarten", "20 Hours ECE": "Yes", "Max. Licenced Positions": 40.0, "Under 2's": 0.0, "tooltip": "Central Kids Kindergartens - Paraone " }, "geometry": { "type": "Point", "coordinates": [ 175.273779, -38.883093 ] } },
{ "type": "Feature", "properties": { "Service Name": "Central Kids Kindergartens - Paranui ", "Latitude": -38.214937, "Longitude": 175.854835, "Territorial Authority": "South Waikato District", "Service Type": "Free Kindergarten", "20 Hours ECE": "Yes", "Max. Licenced Positions": 40.0, "Under 2's": 0.0, "tooltip": "Central Kids Kindergartens - Paranui " }, "geometry": { "type": "Point", "coordinates": [ 175.854835, -38.214937 ] } },
{ "type": "Feature", "properties": { "Service Name": "Central Kids Kindergartens - Ptauaki", "Latitude": -38.088724, "Longitude": 176.686904, "Territorial Authority": "Kawerau District", "Service Type": "Free Kindergarten", "20 Hours ECE": "Yes", "Max. Licenced Positions": 40.0, "Under 2's": 0.0, "tooltip": "Central Kids Kindergartens - Ptauaki" }, "geometry": { "type": "Point", "coordinates": [ 176.686904, -38.088724 ] } },
{ "type": "Feature", "properties": { "Service Name": "Central Kids Kindergartens - Rwhiti ", "Latitude": -37.810886, "Longitude": 175.784316, "Territorial Authority": "Matamata-Piako District", "Service Type": "Free Kindergarten", "20 Hours ECE": "Yes", "Max. Licenced Positions": 40.0, "Under 2's": 0.0, "tooltip": "Central Kids Kindergartens - Rwhiti " }, "geometry": { "type": "Point", "coordinates": [ 175.784316, -37.810886 ] } },
{ "type": "Feature", "properties": { "Service Name": "Central Kids Kindergartens - Rewi Street ", "Latitude": -38.009156, "Longitude": 175.320216, "Territorial Authority": "Waipa District", "Service Type": "Free Kindergarten", "20 Hours ECE": "Yes", "Max. Licenced Positions": 40.0, "Under 2's": 0.0, "tooltip": "Central Kids Kindergartens - Rewi Street " }, "geometry": { "type": "Point", "coordinates": [ 175.320216, -38.009156 ] } },
{ "type": "Feature", "properties": { "Service Name": "Central Kids Kindergartens - Rotorua East", "Latitude": -38.141814, "Longitude": 176.29119, "Territorial Authority": "Rotorua District", "Service Type": "Free Kindergarten", "20 Hours ECE": "Yes", "Max. Licenced Positions": 40.0, "Under 2's": 0.0, "tooltip": "Central Kids Kindergartens - Rotorua East" }, "geometry": { "type": "Point", "coordinates": [ 176.29119, -38.141814 ] } },
{ "type": "Feature", "properties": { "Service Name": "Central Kids Kindergartens - Selwyn", "Latitude": -38.113582, "Longitude": 176.223981, "Territorial Authority": "Rotorua District", "Service Type": "Free Kindergarten", "20 Hours ECE": "Yes", "Max. Licenced Positions": 45.0, "Under 2's": 0.0, "tooltip": "Central Kids Kindergartens - Selwyn" }, "geometry": { "type": "Point", "coordinates": [ 176.223981, -38.113582 ] } },
{ "type": "Feature", "properties": { "Service Name": "Central Kids Kindergartens - Strathmore", "Latitude": -37.967388, "Longitude": 176.979327, "Territorial Authority": "Whakatane District", "Service Type": "Free Kindergarten", "20 Hours ECE": "Yes", "Max. Licenced Positions": 40.0, "Under 2's": 0.0, "tooltip": "Central Kids Kindergartens - Strathmore" }, "geometry": { "type": "Point", "coordinates": [ 176.979327, -37.967388 ] } },
{ "type": "Feature", "properties": { "Service Name": "Central Kids Kindergartens -  Te Ara Mtauranga", "Latitude": -38.868009, "Longitude": 175.252404, "Territorial Authority": "Ruapehu District", "Service Type": "Free Kindergarten", "20 Hours ECE": "Yes", "Max. Licenced Positions": 40.0, "Under 2's": 0.0, "tooltip": "Central Kids Kindergartens -  Te Ara Mtauranga" }, "geometry": { "type": "Point", "coordinates": [ 175.252404, -38.868009 ] } },
{ "type": "Feature", "properties": { "Service Name": "Central Kids Kindergartens - Trangi", "Latitude": -38.98484, "Longitude": 175.810295, "Territorial Authority": "Taupo District", "Service Type": "Free Kindergarten", "20 Hours ECE": "Yes", "Max. Licenced Positions": 40.0, "Under 2's": 0.0, "tooltip": "Central Kids Kindergartens - Trangi" }, "geometry": { "type": "Point", "coordinates": [ 175.810295, -38.98484 ] } },
{ "type": "Feature", "properties": { "Service Name": "Central Kids Kindergartens - Waiphh", "Latitude": -38.717919, "Longitude": 176.088417, "Territorial Authority": "Taupo District", "Service Type": "Free Kindergarten", "20 Hours ECE": "Yes", "Max. Licenced Positions": 40.0, "Under 2's": 0.0, "tooltip": "Central Kids Kindergartens - Waiphh" }, "geometry": { "type": "Point", "coordinates": [ 176.088417, -38.717919 ] } },
{ "type": "Feature", "properties": { "Service Name": "Central Kids Kindergartens - Fairview Park", "Latitude": -38.123955, "Longitude": 176.219024, "Territorial Authority": "Rotorua District", "Service Type": "Free Kindergarten", "20 Hours ECE": "Yes", "Max. Licenced Positions": 40.0, "Under 2's": 0.0, "tooltip": "Central Kids Kindergartens - Fairview Park" }, "geometry": { "type": "Point", "coordinates": [ 176.219024, -38.123955 ] } },
{ "type": "Feature", "properties": { "Service Name": "Arataki Free Kindergarten", "Latitude": -37.675287, "Longitude": 176.233217, "Territorial Authority": "Tauranga City", "Service Type": "Free Kindergarten", "20 Hours ECE": "Yes", "Max. Licenced Positions": 45.0, "Under 2's": 0.0, "tooltip": "Arataki Free Kindergarten" }, "geometry": { "type": "Point", "coordinates": [ 176.233217, -37.675287 ] } },
{ "type": "Feature", "properties": { "Service Name": "Brookfield Free Kindergarten", "Latitude": -37.691906, "Longitude": 176.136406, "Territorial Authority": "Tauranga City", "Service Type": "Free Kindergarten", "20 Hours ECE": "Yes", "Max. Licenced Positions": 42.0, "Under 2's": 0.0, "tooltip": "Brookfield Free Kindergarten" }, "geometry": { "type": "Point", "coordinates": [ 176.136406, -37.691906 ] } },
{ "type": "Feature", "properties": { "Service Name": "Greerton Village Kindergarten", "Latitude": -37.728114, "Longitude": 176.133087, "Territorial Authority": "Tauranga City", "Service Type": "Free Kindergarten", "20 Hours ECE": "Yes", "Max. Licenced Positions": 45.0, "Under 2's": 0.0, "tooltip": "Greerton Village Kindergarten" }, "geometry": { "type": "Point", "coordinates": [ 176.133087, -37.728114 ] } },
{ "type": "Feature", "properties": { "Service Name": "Gwen Rogers Free Kindergarten", "Latitude": -37.659361, "Longitude": 176.205568, "Territorial Authority": "Tauranga City", "Service Type": "Free Kindergarten", "20 Hours ECE": "Yes", "Max. Licenced Positions": 45.0, "Under 2's": 0.0, "tooltip": "Gwen Rogers Free Kindergarten" }, "geometry": { "type": "Point", "coordinates": [ 176.205568, -37.659361 ] } },
{ "type": "Feature", "properties": { "Service Name": "Maungatapu Free Kindergarten", "Latitude": -37.715415, "Longitude": 176.183088, "Territorial Authority": "Tauranga City", "Service Type": "Free Kindergarten", "20 Hours ECE": "Yes", "Max. Licenced Positions": 45.0, "Under 2's": 0.0, "tooltip": "Maungatapu Free Kindergarten" }, "geometry": { "type": "Point", "coordinates": [ 176.183088, -37.715415 ] } },
{ "type": "Feature", "properties": { "Service Name": "Otumoetai Free Kindergarten", "Latitude": -37.67445, "Longitude": 176.149748, "Territorial Authority": "Tauranga City", "Service Type": "Free Kindergarten", "20 Hours ECE": "Yes", "Max. Licenced Positions": 45.0, "Under 2's": 0.0, "tooltip": "Otumoetai Free Kindergarten" }, "geometry": { "type": "Point", "coordinates": [ 176.149748, -37.67445 ] } },
{ "type": "Feature", "properties": { "Service Name": "Te Puke Free Kindergarten", "Latitude": -37.78761, "Longitude": 176.323738, "Territorial Authority": "Western Bay of Plenty District", "Service Type": "Free Kindergarten", "20 Hours ECE": "Yes", "Max. Licenced Positions": 42.0, "Under 2's": 0.0, "tooltip": "Te Puke Free Kindergarten" }, "geometry": { "type": "Point", "coordinates": [ 176.323738, -37.78761 ] } },
{ "type": "Feature", "properties": { "Service Name": "Paengaroa Free Kindergarten", "Latitude": -37.825636, "Longitude": 176.414366, "Territorial Authority": "Western Bay of Plenty District", "Service Type": "Free Kindergarten", "20 Hours ECE": "Yes", "Max. Licenced Positions": 43.0, "Under 2's": 0.0, "tooltip": "Paengaroa Free Kindergarten" }, "geometry": { "type": "Point", "coordinates": [ 176.414366, -37.825636 ] } },
{ "type": "Feature", "properties": { "Service Name": "Bell Block Pohutakawa Kindergarten", "Latitude": -39.03343, "Longitude": 174.146674, "Territorial Authority": "New Plymouth District", "Service Type": "Free Kindergarten", "20 Hours ECE": "Yes", "Max. Licenced Positions": 31.0, "Under 2's": 0.0, "tooltip": "Bell Block Pohutakawa Kindergarten" }, "geometry": { "type": "Point", "coordinates": [ 174.146674, -39.03343 ] } },
{ "type": "Feature", "properties": { "Service Name": "Brooklands Kindergarten", "Latitude": -39.077225, "Longitude": 174.086131, "Territorial Authority": "New Plymouth District", "Service Type": "Free Kindergarten", "20 Hours ECE": "Yes", "Max. Licenced Positions": 40.0, "Under 2's": 0.0, "tooltip": "Brooklands Kindergarten" }, "geometry": { "type": "Point", "coordinates": [ 174.086131, -39.077225 ] } },
{ "type": "Feature", "properties": { "Service Name": "Devon Kindergarten", "Latitude": -39.061264, "Longitude": 174.051182, "Territorial Authority": "New Plymouth District", "Service Type": "Free Kindergarten", "20 Hours ECE": "Yes", "Max. Licenced Positions": 34.0, "Under 2's": 0.0, "tooltip": "Devon Kindergarten" }, "geometry": { "type": "Point", "coordinates": [ 174.051182, -39.061264 ] } },
{ "type": "Feature", "properties": { "Service Name": "Fitzroy Kindergarten", "Latitude": -39.047135, "Longitude": 174.100265, "Territorial Authority": "New Plymouth District", "Service Type": "Free Kindergarten", "20 Hours ECE": "Yes", "Max. Licenced Positions": 34.0, "Under 2's": 0.0, "tooltip": "Fitzroy Kindergarten" }, "geometry": { "type": "Point", "coordinates": [ 174.100265, -39.047135 ] } },
{ "type": "Feature", "properties": { "Service Name": "Kahikatea Kindergarten Hurdon", "Latitude": -39.090664, "Longitude": 174.056219, "Territorial Authority": "New Plymouth District", "Service Type": "Free Kindergarten", "20 Hours ECE": "Yes", "Max. Licenced Positions": 40.0, "Under 2's": 0.0, "tooltip": "Kahikatea Kindergarten Hurdon" }, "geometry": { "type": "Point", "coordinates": [ 174.056219, -39.090664 ] } },
{ "type": "Feature", "properties": { "Service Name": "Inglewood Kindergarten", "Latitude": -39.158539, "Longitude": 174.198627, "Territorial Authority": "New Plymouth District", "Service Type": "Free Kindergarten", "20 Hours ECE": "Yes", "Max. Licenced Positions": 40.0, "Under 2's": 0.0, "tooltip": "Inglewood Kindergarten" }, "geometry": { "type": "Point", "coordinates": [ 174.198627, -39.158539 ] } },
{ "type": "Feature", "properties": { "Service Name": "Marfell Kindergarten", "Latitude": -39.076952, "Longitude": 174.049219, "Territorial Authority": "New Plymouth District", "Service Type": "Free Kindergarten", "20 Hours ECE": "Yes", "Max. Licenced Positions": 36.0, "Under 2's": 0.0, "tooltip": "Marfell Kindergarten" }, "geometry": { "type": "Point", "coordinates": [ 174.049219, -39.076952 ] } },
{ "type": "Feature", "properties": { "Service Name": "Merrilands Kindergarten", "Latitude": -39.060064, "Longitude": 174.101862, "Territorial Authority": "New Plymouth District", "Service Type": "Free Kindergarten", "20 Hours ECE": "Yes", "Max. Licenced Positions": 40.0, "Under 2's": 0.0, "tooltip": "Merrilands Kindergarten" }, "geometry": { "type": "Point", "coordinates": [ 174.101862, -39.060064 ] } },
{ "type": "Feature", "properties": { "Service Name": "Pukekura Kindergarten", "Latitude": -39.061916, "Longitude": 174.080605, "Territorial Authority": "New Plymouth District", "Service Type": "Free Kindergarten", "20 Hours ECE": "Yes", "Max. Licenced Positions": 40.0, "Under 2's": 0.0, "tooltip": "Pukekura Kindergarten" }, "geometry": { "type": "Point", "coordinates": [ 174.080605, -39.061916 ] } },
{ "type": "Feature", "properties": { "Service Name": "Puketapu Kindergarten", "Latitude": -39.025494, "Longitude": 174.151132, "Territorial Authority": "New Plymouth District", "Service Type": "Free Kindergarten", "20 Hours ECE": "Yes", "Max. Licenced Positions": 34.0, "Under 2's": 0.0, "tooltip": "Puketapu Kindergarten" }, "geometry": { "type": "Point", "coordinates": [ 174.151132, -39.025494 ] } },
{ "type": "Feature", "properties": { "Service Name": "Ngamotu Kindergarten", "Latitude": -39.067269, "Longitude": 174.024327, "Territorial Authority": "New Plymouth District", "Service Type": "Free Kindergarten", "20 Hours ECE": "Yes", "Max. Licenced Positions": 34.0, "Under 2's": 0.0, "tooltip": "Ngamotu Kindergarten" }, "geometry": { "type": "Point", "coordinates": [ 174.024327, -39.067269 ] } },
{ "type": "Feature", "properties": { "Service Name": "Waitara Central Kindergarten", "Latitude": -39.003864, "Longitude": 174.235427, "Territorial Authority": "New Plymouth District", "Service Type": "Free Kindergarten", "20 Hours ECE": "Yes", "Max. Licenced Positions": 40.0, "Under 2's": 0.0, "tooltip": "Waitara Central Kindergarten" }, "geometry": { "type": "Point", "coordinates": [ 174.235427, -39.003864 ] } },
{ "type": "Feature", "properties": { "Service Name": "Orapa Kindergarten", "Latitude": -38.992449, "Longitude": 174.22415, "Territorial Authority": "New Plymouth District", "Service Type": "Free Kindergarten", "20 Hours ECE": "Yes", "Max. Licenced Positions": 40.0, "Under 2's": 0.0, "tooltip": "Orapa Kindergarten" }, "geometry": { "type": "Point", "coordinates": [ 174.22415, -38.992449 ] } },
{ "type": "Feature", "properties": { "Service Name": "Westown Kindergarten", "Latitude": -39.073982, "Longitude": 174.060422, "Territorial Authority": "New Plymouth District", "Service Type": "Free Kindergarten", "20 Hours ECE": "Yes", "Max. Licenced Positions": 40.0, "Under 2's": 0.0, "tooltip": "Westown Kindergarten" }, "geometry": { "type": "Point", "coordinates": [ 174.060422, -39.073982 ] } },
{ "type": "Feature", "properties": { "Service Name": "Avon Kindergarten", "Latitude": -39.350845, "Longitude": 174.281912, "Territorial Authority": "Stratford District", "Service Type": "Free Kindergarten", "20 Hours ECE": "Yes", "Max. Licenced Positions": 39.0, "Under 2's": 0.0, "tooltip": "Avon Kindergarten" }, "geometry": { "type": "Point", "coordinates": [ 174.281912, -39.350845 ] } },
{ "type": "Feature", "properties": { "Service Name": "Eltham Kindergarten", "Latitude": -39.432762, "Longitude": 174.298041, "Territorial Authority": "South Taranaki District", "Service Type": "Free Kindergarten", "20 Hours ECE": "Yes", "Max. Licenced Positions": 50.0, "Under 2's": 0.0, "tooltip": "Eltham Kindergarten" }, "geometry": { "type": "Point", "coordinates": [ 174.298041, -39.432762 ] } },
{ "type": "Feature", "properties": { "Service Name": "Hawera Kindergarten", "Latitude": -39.59277, "Longitude": 174.27292, "Territorial Authority": "South Taranaki District", "Service Type": "Free Kindergarten", "20 Hours ECE": "Yes", "Max. Licenced Positions": 41.0, "Under 2's": 0.0, "tooltip": "Hawera Kindergarten" }, "geometry": { "type": "Point", "coordinates": [ 174.27292, -39.59277 ] } },
{ "type": "Feature", "properties": { "Service Name": "Koromiko Kindergarten", "Latitude": -39.574149, "Longitude": 174.275921, "Territorial Authority": "South Taranaki District", "Service Type": "Free Kindergarten", "20 Hours ECE": "Yes", "Max. Licenced Positions": 37.0, "Under 2's": 0.0, "tooltip": "Koromiko Kindergarten" }, "geometry": { "type": "Point", "coordinates": [ 174.275921, -39.574149 ] } },
{ "type": "Feature", "properties": { "Service Name": "Patea Kindergarten", "Latitude": -39.752943, "Longitude": 174.473098, "Territorial Authority": "South Taranaki District", "Service Type": "Free Kindergarten", "20 Hours ECE": "Yes", "Max. Licenced Positions": 40.0, "Under 2's": 0.0, "tooltip": "Patea Kindergarten" }, "geometry": { "type": "Point", "coordinates": [ 174.473098, -39.752943 ] } },
{ "type": "Feature", "properties": { "Service Name": "Stratford Central Kindergarten", "Latitude": -39.33797, "Longitude": 174.290165, "Territorial Authority": "Stratford District", "Service Type": "Free Kindergarten", "20 Hours ECE": "Yes", "Max. Licenced Positions": 50.0, "Under 2's": 0.0, "tooltip": "Stratford Central Kindergarten" }, "geometry": { "type": "Point", "coordinates": [ 174.290165, -39.33797 ] } },
{ "type": "Feature", "properties": { "Service Name": "Tawhiti Kindergarten", "Latitude": -39.585302, "Longitude": 174.293371, "Territorial Authority": "South Taranaki District", "Service Type": "Free Kindergarten", "20 Hours ECE": "Yes", "Max. Licenced Positions": 40.0, "Under 2's": 0.0, "tooltip": "Tawhiti Kindergarten" }, "geometry": { "type": "Point", "coordinates": [ 174.293371, -39.585302 ] } },
{ "type": "Feature", "properties": { "Service Name": "Aramoho Kindergarten", "Latitude": -39.901912, "Longitude": 175.061609, "Territorial Authority": "Whanganui District", "Service Type": "Free Kindergarten", "20 Hours ECE": "Yes", "Max. Licenced Positions": 40.0, "Under 2's": 0.0, "tooltip": "Aramoho Kindergarten" }, "geometry": { "type": "Point", "coordinates": [ 175.061609, -39.901912 ] } },
{ "type": "Feature", "properties": { "Service Name": "Barsanti Kindergarten", "Latitude": -39.938773, "Longitude": 175.008009, "Territorial Authority": "Whanganui District", "Service Type": "Free Kindergarten", "20 Hours ECE": "Yes", "Max. Licenced Positions": 40.0, "Under 2's": 0.0, "tooltip": "Barsanti Kindergarten" }, "geometry": { "type": "Point", "coordinates": [ 175.008009, -39.938773 ] } },
{ "type": "Feature", "properties": { "Service Name": "Central Kindergarten", "Latitude": -39.923016, "Longitude": 175.047317, "Territorial Authority": "Whanganui District", "Service Type": "Free Kindergarten", "20 Hours ECE": "Yes", "Max. Licenced Positions": 30.0, "Under 2's": 0.0, "tooltip": "Central Kindergarten" }, "geometry": { "type": "Point", "coordinates": [ 175.047317, -39.923016 ] } },
{ "type": "Feature", "properties": { "Service Name": "Gonville Kindergarten", "Latitude": -39.939818, "Longitude": 175.024631, "Territorial Authority": "Whanganui District", "Service Type": "Free Kindergarten", "20 Hours ECE": "Yes", "Max. Licenced Positions": 40.0, "Under 2's": 0.0, "tooltip": "Gonville Kindergarten" }, "geometry": { "type": "Point", "coordinates": [ 175.024631, -39.939818 ] } },
{ "type": "Feature", "properties": { "Service Name": "Harriette Vine Kindergarten", "Latitude": -39.93854, "Longitude": 175.034075, "Territorial Authority": "Whanganui District", "Service Type": "Free Kindergarten", "20 Hours ECE": "Yes", "Max. Licenced Positions": 40.0, "Under 2's": 0.0, "tooltip": "Harriette Vine Kindergarten" }, "geometry": { "type": "Point", "coordinates": [ 175.034075, -39.93854 ] } },
{ "type": "Feature", "properties": { "Service Name": "Marie McFarland Kindergarten", "Latitude": -39.94028, "Longitude": 174.985613, "Territorial Authority": "Whanganui District", "Service Type": "Free Kindergarten", "20 Hours ECE": "Yes", "Max. Licenced Positions": 40.0, "Under 2's": 0.0, "tooltip": "Marie McFarland Kindergarten" }, "geometry": { "type": "Point", "coordinates": [ 174.985613, -39.94028 ] } },
{ "type": "Feature", "properties": { "Service Name": "Ohakune Kindergarten", "Latitude": -39.414734, "Longitude": 175.406, "Territorial Authority": "Ruapehu District", "Service Type": "Free Kindergarten", "20 Hours ECE": "Yes", "Max. Licenced Positions": 30.0, "Under 2's": 0.0, "tooltip": "Ohakune Kindergarten" }, "geometry": { "type": "Point", "coordinates": [ 175.406, -39.414734 ] } },
{ "type": "Feature", "properties": { "Service Name": "Durie Hill Kindergarten", "Latitude": -39.937715, "Longitude": 175.06402, "Territorial Authority": "Whanganui District", "Service Type": "Free Kindergarten", "20 Hours ECE": "Yes", "Max. Licenced Positions": 40.0, "Under 2's": 0.0, "tooltip": "Durie Hill Kindergarten" }, "geometry": { "type": "Point", "coordinates": [ 175.06402, -39.937715 ] } },
{ "type": "Feature", "properties": { "Service Name": "Putiki Kindergarten", "Latitude": -39.947247, "Longitude": 175.049646, "Territorial Authority": "Whanganui District", "Service Type": "Free Kindergarten", "20 Hours ECE": "Yes", "Max. Licenced Positions": 40.0, "Under 2's": 0.0, "tooltip": "Putiki Kindergarten" }, "geometry": { "type": "Point", "coordinates": [ 175.049646, -39.947247 ] } },
{ "type": "Feature", "properties": { "Service Name": "St John's Hill Kindergarten", "Latitude": -39.921968, "Longitude": 175.03673, "Territorial Authority": "Whanganui District", "Service Type": "Free Kindergarten", "20 Hours ECE": "Yes", "Max. Licenced Positions": 40.0, "Under 2's": 0.0, "tooltip": "St John's Hill Kindergarten" }, "geometry": { "type": "Point", "coordinates": [ 175.03673, -39.921968 ] } },
{ "type": "Feature", "properties": { "Service Name": "Wanganui East Kindergarten", "Latitude": -39.92164, "Longitude": 175.06453, "Territorial Authority": "Whanganui District", "Service Type": "Free Kindergarten", "20 Hours ECE": "Yes", "Max. Licenced Positions": 40.0, "Under 2's": 0.0, "tooltip": "Wanganui East Kindergarten" }, "geometry": { "type": "Point", "coordinates": [ 175.06453, -39.92164 ] } },
{ "type": "Feature", "properties": { "Service Name": "Ashhurst Kindergarten", "Latitude": -40.28554, "Longitude": 175.757216, "Territorial Authority": "Palmerston North City", "Service Type": "Free Kindergarten", "20 Hours ECE": "Yes", "Max. Licenced Positions": 40.0, "Under 2's": 0.0, "tooltip": "Ashhurst Kindergarten" }, "geometry": { "type": "Point", "coordinates": [ 175.757216, -40.28554 ] } },
{ "type": "Feature", "properties": { "Service Name": "Bulls Kindergarten", "Latitude": -40.168857, "Longitude": 175.38605, "Territorial Authority": "Rangitikei District", "Service Type": "Free Kindergarten", "20 Hours ECE": "Yes", "Max. Licenced Positions": 40.0, "Under 2's": 0.0, "tooltip": "Bulls Kindergarten" }, "geometry": { "type": "Point", "coordinates": [ 175.38605, -40.168857 ] } },
{ "type": "Feature", "properties": { "Service Name": "Campbell Street Early Learning", "Latitude": -40.353671, "Longitude": 175.604446, "Territorial Authority": "Palmerston North City", "Service Type": "Free Kindergarten", "20 Hours ECE": "Yes", "Max. Licenced Positions": 49.0, "Under 2's": 10.0, "tooltip": "Campbell Street Early Learning" }, "geometry": { "type": "Point", "coordinates": [ 175.604446, -40.353671 ] } },
{ "type": "Feature", "properties": { "Service Name": "Cloverlea Kindergarten", "Latitude": -40.345417, "Longitude": 175.585437, "Territorial Authority": "Palmerston North City", "Service Type": "Free Kindergarten", "20 Hours ECE": "Yes", "Max. Licenced Positions": 40.0, "Under 2's": 0.0, "tooltip": "Cloverlea Kindergarten" }, "geometry": { "type": "Point", "coordinates": [ 175.585437, -40.345417 ] } },
{ "type": "Feature", "properties": { "Service Name": "Feilding Kindergarten", "Latitude": -40.224647, "Longitude": 175.572798, "Territorial Authority": "Manawatu District", "Service Type": "Free Kindergarten", "20 Hours ECE": "Yes", "Max. Licenced Positions": 40.0, "Under 2's": 0.0, "tooltip": "Feilding Kindergarten" }, "geometry": { "type": "Point", "coordinates": [ 175.572798, -40.224647 ] } },
{ "type": "Feature", "properties": { "Service Name": "Somerset Kindergarten", "Latitude": -40.353587, "Longitude": 175.585612, "Territorial Authority": "Palmerston North City", "Service Type": "Free Kindergarten", "20 Hours ECE": "Yes", "Max. Licenced Positions": 40.0, "Under 2's": 0.0, "tooltip": "Somerset Kindergarten" }, "geometry": { "type": "Point", "coordinates": [ 175.585612, -40.353587 ] } },
{ "type": "Feature", "properties": { "Service Name": "Hokowhitu Kindergarten", "Latitude": -40.358655, "Longitude": 175.636269, "Territorial Authority": "Palmerston North City", "Service Type": "Free Kindergarten", "20 Hours ECE": "Yes", "Max. Licenced Positions": 40.0, "Under 2's": 0.0, "tooltip": "Hokowhitu Kindergarten" }, "geometry": { "type": "Point", "coordinates": [ 175.636269, -40.358655 ] } },
{ "type": "Feature", "properties": { "Service Name": "Waiouru Kindergarten and Care", "Latitude": -39.467557, "Longitude": 175.676049, "Territorial Authority": "Ruapehu District", "Service Type": "Free Kindergarten", "20 Hours ECE": "Yes", "Max. Licenced Positions": 65.0, "Under 2's": 15.0, "tooltip": "Waiouru Kindergarten and Care" }, "geometry": { "type": "Point", "coordinates": [ 175.676049, -39.467557 ] } },
{ "type": "Feature", "properties": { "Service Name": "Linton Kindergarten", "Latitude": -40.409356, "Longitude": 175.587856, "Territorial Authority": "Palmerston North City", "Service Type": "Free Kindergarten", "20 Hours ECE": "Yes", "Max. Licenced Positions": 30.0, "Under 2's": 0.0, "tooltip": "Linton Kindergarten" }, "geometry": { "type": "Point", "coordinates": [ 175.587856, -40.409356 ] } },
{ "type": "Feature", "properties": { "Service Name": "Milson Kindergarten", "Latitude": -40.330865, "Longitude": 175.611148, "Territorial Authority": "Palmerston North City", "Service Type": "Free Kindergarten", "20 Hours ECE": "Yes", "Max. Licenced Positions": 40.0, "Under 2's": 0.0, "tooltip": "Milson Kindergarten" }, "geometry": { "type": "Point", "coordinates": [ 175.611148, -40.330865 ] } },
{ "type": "Feature", "properties": { "Service Name": "Manchester Kindergarten", "Latitude": -40.222821, "Longitude": 175.559305, "Territorial Authority": "Manawatu District", "Service Type": "Free Kindergarten", "20 Hours ECE": "Yes", "Max. Licenced Positions": 40.0, "Under 2's": 0.0, "tooltip": "Manchester Kindergarten" }, "geometry": { "type": "Point", "coordinates": [ 175.559305, -40.222821 ] } },
{ "type": "Feature", "properties": { "Service Name": "Mill Street Early Learning", "Latitude": -40.077834, "Longitude": 175.373874, "Territorial Authority": "Rangitikei District", "Service Type": "Free Kindergarten", "20 Hours ECE": "Yes", "Max. Licenced Positions": 45.0, "Under 2's": 10.0, "tooltip": "Mill Street Early Learning" }, "geometry": { "type": "Point", "coordinates": [ 175.373874, -40.077834 ] } },
{ "type": "Feature", "properties": { "Service Name": "Parkland Kindergarten", "Latitude": -40.350548, "Longitude": 175.640695, "Territorial Authority": "Palmerston North City", "Service Type": "Free Kindergarten", "20 Hours ECE": "Yes", "Max. Licenced Positions": 50.0, "Under 2's": 0.0, "tooltip": "Parkland Kindergarten" }, "geometry": { "type": "Point", "coordinates": [ 175.640695, -40.350548 ] } },
{ "type": "Feature", "properties": { "Service Name": "Riverdale Kindergarten (PN)", "Latitude": -40.377021, "Longitude": 175.597995, "Territorial Authority": "Palmerston North City", "Service Type": "Free Kindergarten", "20 Hours ECE": "Yes", "Max. Licenced Positions": 40.0, "Under 2's": 0.0, "tooltip": "Riverdale Kindergarten (PN)" }, "geometry": { "type": "Point", "coordinates": [ 175.597995, -40.377021 ] } },
{ "type": "Feature", "properties": { "Service Name": "Roslyn Kindergarten", "Latitude": -40.341196, "Longitude": 175.631525, "Territorial Authority": "Palmerston North City", "Service Type": "Free Kindergarten", "20 Hours ECE": "Yes", "Max. Licenced Positions": 40.0, "Under 2's": 0.0, "tooltip": "Roslyn Kindergarten" }, "geometry": { "type": "Point", "coordinates": [ 175.631525, -40.341196 ] } },
{ "type": "Feature", "properties": { "Service Name": "Takaro Kindergarten", "Latitude": -40.360705, "Longitude": 175.58923, "Territorial Authority": "Palmerston North City", "Service Type": "Free Kindergarten", "20 Hours ECE": "Yes", "Max. Licenced Positions": 35.0, "Under 2's": 0.0, "tooltip": "Takaro Kindergarten" }, "geometry": { "type": "Point", "coordinates": [ 175.58923, -40.360705 ] } },
{ "type": "Feature", "properties": { "Service Name": "West End Kindergarten", "Latitude": -40.368709, "Longitude": 175.589108, "Territorial Authority": "Palmerston North City", "Service Type": "Free Kindergarten", "20 Hours ECE": "Yes", "Max. Licenced Positions": 40.0, "Under 2's": 0.0, "tooltip": "West End Kindergarten" },